"","FID","Nombre_de_","Nombre_d_1","Descripcio","Operador","Longitude","Latitude","Municipio","Poblacion","COD_INE"
"1",1,"Casino Rabassada - av. Can Cortès (A)","L0242","Barcelona-Sant Cugat del Vallès per Rabassada (A6)","Marfina Bus, SA",2.10951793000004,41.431274312,"Sant Cugat del Vallès",92977,8205
"2",2,"cruïlla Colònia Parès (D)","L0242","Barcelona-Sant Cugat del Vallès per Rabassada (A6)","Marfina Bus, SA",2.09095985600004,41.4497744930001,"Sant Cugat del Vallès",92977,8205
"3",3,"ctra. Rabassada (Mas del Bosc) (A)","L0242","Barcelona-Sant Cugat del Vallès per Rabassada (A6)","Marfina Bus, SA",2.09578304200005,41.446434734,"Sant Cugat del Vallès",92977,8205
"4",4,"Can Vasconcel (Rabassada-Oceà Atlàntic)","L0242","Barcelona-Sant Cugat del Vallès per Rabassada (A6)","Marfina Bus, SA",2.09034517900005,41.455210096,"Sant Cugat del Vallès",92977,8205
"5",6,"cruïlla ctra. Tibidabo","L0242","Barcelona-Sant Cugat del Vallès per Rabassada (A6)","Marfina Bus, SA",2.12201717700003,41.428307857,"Sant Cugat del Vallès",92977,8205
"6",8,"Estacio d'FGC de Sant Cugat","L0242","Barcelona-Sant Cugat del Vallès per Rabassada (A6)","Marfina Bus, SA",2.07874365400005,41.4678812070001,"Sant Cugat del Vallès",92977,8205
"7",9,"Estacio d'FGC de Sant Cugat","L0121","Barcelona-Terrassa-Sabadell-Barcelona (N61)","Marfina Bus, SA",2.07874365400005,41.4678812070001,"Sant Cugat del Vallès",92977,8205
"8",11,"Estacio d'FGC de Sant Cugat","L0136","Barcelona-UAB-Sant Cugat del Vallès (N62)","Autocares R. Font, SA i Martí Renom, SA",2.07874365400005,41.4678812070001,"Sant Cugat del Vallès",92977,8205
"9",15,"Estacio d'FGC de Sant Cugat","L0123","Barcelona-Sabadell-Terrassa-Barcelona (N64)","Marfina Bus, SA",2.07874365400005,41.4678812070001,"Sant Cugat del Vallès",92977,8205
"10",17,"el Portinyol","L1262","Sant Celoni - Vallgorguina - Arenys de Mar","Cingles Bus, SA",2.56323037900006,41.5802619510001,"Arenys de Mar",15941,8006
"11",19,"la Conreria - Seminari de Montalegre","L1284","Badalona - Sabadell (per Tiana i Montgat)","CRA La Hispània, SA",2.25396127900007,41.492354146,"Sant Fost de Campsentelles",8853,8209
"12",23,"la Conreria - Seminari de Montalegre","L1285","Badalona - Sabadell  Nord","CRA La Hispània, SA",2.25396127900007,41.492354146,"Sant Fost de Campsentelles",8853,8209
"13",26,"pl. Esbert","L1282","Urbà de Sant Fost de Campsentelles(St.Fost-Mollet)","CRA La Hispània, SA",2.22413603300004,41.527096278,"Sant Fost de Campsentelles",8853,8209
"14",27,"Pineda de Bages (pl.Santpedor) (D) MB052","L0658","Sant Fruitós-Brucardes-St.Fruitós-Pineda-St.Fruitó","Transbages, SL",1.83951565900003,41.7597336370001,"Sant Fruitós de Bages",8837,8213
"15",31,"Pineda de Bages (pl.Santpedor) (D) MB052","L0489","Manresa-Santpedor-Castellnou-Santa Anna de Claret","SA Alsina Graells de Auto Transportes",1.83951565900003,41.7597336370001,"Sant Fruitós de Bages",8837,8213
"16",34,"el Pont de Cabrianes","L0472","Manresa - Artés - Monistrol de Calders","Transportes Castellà, SA",1.90334152900004,41.7711328330001,"Sant Fruitós de Bages",8837,8213
"17",36,"el Pont de Cabrianes","L0474","Manresa - Artés - Santa Maria d'Oló","Transportes Castellà, SA",1.90334152900004,41.7711328330001,"Sant Fruitós de Bages",8837,8213
"18",42,"el Pont de Cabrianes","L0470","Manresa - Artés - Moià","Transportes Castellà, SA",1.90334152900004,41.7711328330001,"Sant Fruitós de Bages",8837,8213
"19",47,"el Pont de Cabrianes","L1363","Manresa - Vic (dissabtes)","Transportes Castellà, SA",1.90334152900004,41.7711328330001,"Sant Fruitós de Bages",8837,8213
"20",49,"el Pont de Cabrianes","L1364","Barcelona-Manresa-Prats de Lluçanès (diss.i fest.)","Transportes Castellà, SA",1.90334152900004,41.7711328330001,"Sant Fruitós de Bages",8837,8213
"21",51,"urb. les Brucardes (Piscines)","L0658","Sant Fruitós-Brucardes-St.Fruitós-Pineda-St.Fruitó","Transbages, SL",1.88547017800005,41.7415084200001,"Sant Fruitós de Bages",8837,8213
"22",54,"Sant Hipòlit de Voltregà (cr.)","L0208","Camprodon - Barcelona","Transportes Eléctricos Interurbanos, SA -TEISA-",2.23728510600006,42.0125681530001,"Sant Hipòlit de Voltregà",3540,8215
"23",60,"Sant Martí de Torroella (D) MB0543","L1446","Solsona - Manresa - Barcelona","SA Alsina Graells de Auto Transportes",1.78877754800004,41.770531453,"Sant Joan de Vilatorrada",10998,8218
"24",62,"el Torrentfondo","L1365","T-BUS","La Hispano Llacunense, SL",1.81149409200003,41.472392799,"Sant Llorenç d'Hortons",2428,8222
"25",85,"Sant Martí de Centelles","L0239","Castellterçol-Centelles-Tona-Vic","Empresa Sagalés, SA",2.20575175400006,41.765443324,"Sant Martí de Centelles",1184,8224
"26",87,"la Blava","L0574","Prats de Lluçanès-Sta.Eulàlia Puig-oriol-Prats L.","25 Osona Bus, SA",2.06970434700003,42.044935509,"Sant Martí d'Albars",114,8225
"27",88,"Heucària","L0183","les Borges Blanques-Guimerà-Igualada-Barcelona","La Hispano Igualadina, SAU",1.50816891500006,41.5610814950001,"Sant Martí de Tous",1228,8226
"28",94,"Heucària","L0381","Igualada - Tarragona","La Hispano Igualadina, SAU",1.50816891500006,41.5610814950001,"Sant Martí de Tous",1228,8226
"29",98,"Sant Martí de Tous","L0183","les Borges Blanques-Guimerà-Igualada-Barcelona","La Hispano Igualadina, SAU",1.52293123200008,41.5621367850001,"Sant Martí de Tous",1228,8226
"30",104,"Sant Martí de Tous","L1431","Sta.Coloma Queralt-St.Martí Tous-Jorba-Igualada","La Hispano Igualadina, SAU",1.52293123200008,41.5621367850001,"Sant Martí de Tous",1228,8226
"31",109,"Can Croset","L0568","Pontons - Vilafranca del Penedès - Barcelona","La Hispano Igualadina, SAU",1.58726042700005,41.383919102,"Sant Martí Sarroca",3261,8227
"32",123,"Can Sogues","L0568","Pontons - Vilafranca del Penedès - Barcelona","La Hispano Igualadina, SAU",1.63559903700002,41.3823047240001,"Sant Martí Sarroca",3261,8227
"33",137,"Pont de Baró","L0402","La Llacuna - Vilafranca del Penedès","La Hispano Llacunense, SL",1.59920331100005,41.3930544030001,"Sant Martí Sarroca",3261,8227
"34",139,"Sant Martí Sarroca","L0568","Pontons - Vilafranca del Penedès - Barcelona","La Hispano Igualadina, SAU",1.61127398600007,41.386229099,"Sant Martí Sarroca",3261,8227
"35",153,"Valls de Torroella","L1446","Solsona - Manresa - Barcelona","SA Alsina Graells de Auto Transportes",1.72207172100002,41.847671803,"Sant Mateu de Bages",608,8229
"36",158,"Can Puig","L0810","Vilafranca del Penedès-Sitges, per Olivella","Teresa y José Plana, Empresa Plana, SL",1.76671003400003,41.2606167930001,"Sant Pere de Ribes",31111,8231
"37",159,"els Plans de Ferran","L0183","les Borges Blanques-Guimerà-Igualada-Barcelona","La Hispano Igualadina, SAU",1.45745963100006,41.5689148340001,"Argençola",219,8008
"38",165,"els Plans de Ferran","L0381","Igualada - Tarragona","La Hispano Igualadina, SAU",1.45745963100006,41.5689148340001,"Argençola",219,8008
"39",169,"Sant Miquel del Fai","L0656","Sant Feliu de Codines - Sant Miquel del Fai","Empresa Sagalés, SA",2.18960304000007,41.716008371,"Sant Quirze Safaja",631,8239
"40",171,"cruïlla Monistrol d'Anoia MB0165","L0074","Barcelona - Santa Coloma de Queralt","La Hispano Llacunense, SL",1.78702287800007,41.4475655030001,"Sant Sadurní d'Anoia",12841,8240
"41",173,"cruïlla Monistrol d'Anoia MB0165","L0562","Piera - Vilarnau - Sant Sadurní d'Anoia","La Hispano Llacunense, SL",1.78702287800007,41.4475655030001,"Sant Sadurní d'Anoia",12841,8240
"42",175,"cruïlla Monistrol d'Anoia MB0165","L1365","T-BUS","La Hispano Llacunense, SL",1.78702287800007,41.4475655030001,"Sant Sadurní d'Anoia",12841,8240
"43",185,"Sant Sadurní d'Anoia(est)","L0710","Subirats - Sant Sadurní d'Anoia","Autocars Vendrell, SL",1.79447394400006,41.4207840490001,"Sant Sadurní d'Anoia",12841,8240
"44",187,"Sant Sadurní d'Anoia(est)","L1149","e18 La Llacuna-Sant Sadurní d'Anoia-Barcelona","La Hispano Llacunense, SL",1.79447394400006,41.4207840490001,"Sant Sadurní d'Anoia",12841,8240
"45",193,"Sant Sadurní d'Anoia(est)","L1365","T-BUS","La Hispano Llacunense, SL",1.79447394400006,41.4207840490001,"Sant Sadurní d'Anoia",12841,8240
"46",202,"Sant Sadurní d'Anoia(est)","L1559","Barcelona - Sant Sadurní d'Anoia (N41)","Soler i Sauret, SA",1.79447394400006,41.4207840490001,"Sant Sadurní d'Anoia",12841,8240
"47",206,"Sant Sadurní d'Anoia(est)","L1568","Barcelona-Vilafranca del Penedès-els Monjos (N42)","La Hispano Igualadina, SAU",1.79447394400006,41.4207840490001,"Sant Sadurní d'Anoia",12841,8240
"48",210,"Sant Sadurní d'Anoia(est)","L1717","Urbà de Piera: Piera-Sant Sadurní d'Anoia (P20)","Montferri Hermanos, SL",1.79447394400006,41.4207840490001,"Sant Sadurní d'Anoia",12841,8240
"49",211,"Sant Sadurní d'Anoia(est)","L1718","Urbà de Piera: Piera-Sant Sadurní d'Anoia (P90)","Montferri Hermanos, SL",1.79447394400006,41.4207840490001,"Sant Sadurní d'Anoia",12841,8240
"50",212,"Vilarnau","L0562","Piera - Vilarnau - Sant Sadurní d'Anoia","La Hispano Llacunense, SL",1.78228317400004,41.4334280200001,"Sant Sadurní d'Anoia",12841,8240
"51",214,"Vilarnau","L1365","T-BUS","La Hispano Llacunense, SL",1.78228317400004,41.4334280200001,"Sant Sadurní d'Anoia",12841,8240
"52",224,"cruïlla Can Catassús","L0562","Piera - Vilarnau - Sant Sadurní d'Anoia","La Hispano Llacunense, SL",1.78730905000003,41.445055488,"Sant Sadurní d'Anoia",12841,8240
"53",226,"cruïlla Can Catassús","L1365","T-BUS","La Hispano Llacunense, SL",1.78730905000003,41.445055488,"Sant Sadurní d'Anoia",12841,8240
"54",236,"Can Benet, cruïlla","L0562","Piera - Vilarnau - Sant Sadurní d'Anoia","La Hispano Llacunense, SL",1.78903372400003,41.459170047,"Sant Sadurní d'Anoia",12841,8240
"55",238,"Can Benet, cruïlla","L1365","T-BUS","La Hispano Llacunense, SL",1.78903372400003,41.459170047,"Sant Sadurní d'Anoia",12841,8240
"56",248,"Ajuntament de Marganell","L0471","Manresa - Marganell","Transbages, SL",1.78894300500002,41.640689782,"Marganell",266,8242
"57",250,"Santa Cecília (Marganell)","L0809","Vilafranca del Penedès-Monestir de Montserrat","La Hispano Igualadina, SAU",1.81725558700003,41.611144344,"Marganell",266,8242
"58",252,"Santa Eulàlia de Riuprimer","L0675","Muntanyola-Santa Eulàlia de Riuprimer-Vic","25 Osona Bus, SA",2.18812448400007,41.910483051,"Santa Eulàlia de Riuprimer",1383,8247
"59",260,"Santa Eulàlia de Riuprimer","L1356","Artés - Avinyó - Vic","Transportes Castellà, SA",2.18812448400007,41.910483051,"Santa Eulàlia de Riuprimer",1383,8247
"60",262,"ctra. Bigues - la Sagrera (D)","L0118","Barcelona - Riells del Fai (per autopista)","Empresa Sagalés, SA",2.23029912800007,41.651149043,"Santa Eulàlia de Ronçana",7426,8248
"61",267,"ctra. Bigues - la Sagrera (D)","L0505","Moià-Sant Feliu-Caldes de Montbui-Granollers","Ferrocarriles y Transportes, SA",2.23029912800007,41.651149043,"Santa Eulàlia de Ronçana",7426,8248
"62",270,"ctra. Bigues - la Sagrera (D)","L1207","Granollers - Santa Eulàlia - Caldes de Montbui","Empresa Sagalés, SA",2.23029912800007,41.651149043,"Santa Eulàlia de Ronçana",7426,8248
"63",271,"ctra. Bigues - la Sagrera (D)","L1230","Barcelona - Riells del Fai (per carretera)","Empresa Sagalés, SA",2.23029912800007,41.651149043,"Santa Eulàlia de Ronçana",7426,8248
"64",274,"ctra. Bigues - la Sagrera (D)","L1428","Bigues i Riells - Granollers","Empresa Sagalés, SA",2.23029912800007,41.651149043,"Santa Eulàlia de Ronçana",7426,8248
"65",275,"ctra. Bigues - la Sagrera (D)","L1614","e7 la Vall del Tenes - Barcelona","Empresa Sagalés, SA",2.23029912800007,41.651149043,"Santa Eulàlia de Ronçana",7426,8248
"66",277,"Santa Fe del Penedès","L0374","Igualada-Barcelona per Vilafranca del Penedès","La Hispano Igualadina, SAU",1.72022333200005,41.3835293500001,"Santa Fe del Penedès",367,8249
"67",280,"Santa Fe del Penedès","L0666","Sant Quintí de Mediona-Vilafranca-Barcelona","La Hispano Igualadina, SAU",1.72022333200005,41.3835293500001,"Santa Fe del Penedès",367,8249
"68",288,"Porquerisses","L0361","Guissona - Igualada - Barcelona","La Hispano Igualadina, SAU",1.45556741300004,41.6251555800001,"Argençola",219,8008
"69",292,"Porquerisses","L0101","Barcelona - Lleida","SA Alsina Graells de Auto Transportes",1.45556741300004,41.6251555800001,"Argençola",219,8008
"70",298,"El Saió","L0183","les Borges Blanques-Guimerà-Igualada-Barcelona","La Hispano Igualadina, SAU",1.56452096400005,41.5821727740001,"Santa Margarida de Montbui",10225,8250
"71",304,"El Saió","L0381","Igualada - Tarragona","La Hispano Igualadina, SAU",1.56452096400005,41.5821727740001,"Santa Margarida de Montbui",10225,8250
"72",308,"Cal Rubió","L0405","el Maset dels Cosins - Vilafranca del Penedès","Bus Castellví, SA",1.64829853000003,41.334418407,"Santa Margarida i els Monjos",7676,8251
"73",314,"la Ràpita del Penedès","L0387","la Múnia - Vilafranca del Penedès","Bus Castellví, SA",1.64691947600005,41.309235503,"Santa Margarida i els Monjos",7676,8251
"74",315,"la Ràpita del Penedès","L0256","Coma-ruga - el Vendrell - Barcelona","La Hispano Igualadina, SAU",1.64691947600005,41.309235503,"Santa Margarida i els Monjos",7676,8251
"75",318,"la Ràpita del Penedès","L0808","Vilafranca - El Vendrell -Tarragona -Port Aventura","Autocars del Penedès, SA",1.64691947600005,41.309235503,"Santa Margarida i els Monjos",7676,8251
"76",321,"Trespins (enllaç)","L0387","la Múnia - Vilafranca del Penedès","Bus Castellví, SA",1.64571315200004,41.313842123,"Santa Margarida i els Monjos",7676,8251
"77",323,"Monjos, Els (La Pista)","L0256","Coma-ruga - el Vendrell - Barcelona","La Hispano Igualadina, SAU",1.66521636700003,41.322329778,"Santa Margarida i els Monjos",7676,8251
"78",326,"Monjos, Els (La Pista)","L0808","Vilafranca - El Vendrell -Tarragona -Port Aventura","Autocars del Penedès, SA",1.66521636700003,41.322329778,"Santa Margarida i els Monjos",7676,8251
"79",329,"Monjos, Els (La Pista)","L1568","Barcelona-Vilafranca del Penedès-els Monjos (N42)","La Hispano Igualadina, SAU",1.66521636700003,41.322329778,"Santa Margarida i els Monjos",7676,8251
"80",332,"Monjos, Els (Esglèsia)","L0387","la Múnia - Vilafranca del Penedès","Bus Castellví, SA",1.66172508100004,41.320109437,"Santa Margarida i els Monjos",7676,8251
"81",334,"Monjos, Els (Esglèsia)","L0256","Coma-ruga - el Vendrell - Barcelona","La Hispano Igualadina, SAU",1.66172508100004,41.320109437,"Santa Margarida i els Monjos",7676,8251
"82",338,"Monjos, Els (Esglèsia)","L0808","Vilafranca - El Vendrell -Tarragona -Port Aventura","Autocars del Penedès, SA",1.66172508100004,41.320109437,"Santa Margarida i els Monjos",7676,8251
"83",345,"Monjos, Els (Esglèsia)","L1568","Barcelona-Vilafranca del Penedès-els Monjos (N42)","La Hispano Igualadina, SAU",1.66172508100004,41.320109437,"Santa Margarida i els Monjos",7676,8251
"84",351,"la Ràpita","L0069","Balaguer - Tàrrega - Barcelona","SA Alsina Graells de Auto Transportes",0.841065912000033,41.781494233,"Vallfogona de Balaguer",1906,25240
"85",352,"la Ràpita","L0056","Balaguer - Tàrrega","SA Alsina Graells de Auto Transportes",0.841065912000033,41.781494233,"Vallfogona de Balaguer",1906,25240
"86",354,"la Ràpita","L0972","Balaguer - Mollerussa","SA Alsina Graells de Auto Transportes",0.841065912000033,41.781494233,"Vallfogona de Balaguer",1906,25240
"87",355,"Baricentro","L1008","Urbà de Barberà: pl. d'Espanya-Baricentro","Marfina Bus, SA",2.13642477800005,41.5078619700001,"Ripollet",39179,8180
"88",359,"Santa Maria de Besora","L0668","Sant Quirze de Besora-Vidrà","25 Osona Bus, SA",2.25833400500005,42.1268992390001,"Santa Maria de Besora",161,8253
"89",361,"Sant Martí Sescorts","L1274","Rupit-l'Esquirol-Manlleu-Roda de Ter-Vic (SC)","25 Osona Bus, SA",2.32578779000005,42.0134823770001,"L'Esquirol",2186,8254
"90",367,"Santa Maria de Merlès","L1596","Berga - Prats de Lluçanès","Transbages, SL",1.97820126900007,42.0010703030001,"Santa Maria de Merlès",184,8255
"91",368,"la Vilalta","L1596","Berga - Prats de Lluçanès","Transbages, SL",1.98939547400005,42.0200830630001,"Santa Maria de Merlès",184,8255
"92",370,"pl. Joan Matons","L0509","Mollet del Vallès - Martorelles","CRA La Hispània, SA",2.25390290800004,41.519357804,"Santa Maria de Martorelles",890,8256
"93",374,"Rocabruna","L1356","Artés - Avinyó - Vic","Transportes Castellà, SA",2.10548978500003,41.899493324,"Santa Maria d'Oló",1024,8258
"94",376,"Palautordera (estació)","L0250","Circumval·lació Santa Maria de Palautordera","Cingles Bus, SA",2.45510837800003,41.6715838310001,"Santa Maria de Palautordera",9630,8259
"95",386,"av. la Serra - c. Monturiol","L0250","Circumval·lació Santa Maria de Palautordera","Cingles Bus, SA",2.45465622500006,41.68956891,"Santa Maria de Palautordera",9630,8259
"96",392,"Pont Trencat (Palautordera)","L0519","Montseny-Sant Celoni-Sant Pere de Vilamajor","Cingles Bus, SA",2.48569780400004,41.678615242,"Santa Maria de Palautordera",9630,8259
"97",396,"Pont Trencat (Palautordera)","L1268","Granollers - Sant Celoni","Cingles Bus, SA",2.48569780400004,41.678615242,"Santa Maria de Palautordera",9630,8259
"98",397,"Can Bosc (av. Vallès)","L0250","Circumval·lació Santa Maria de Palautordera","Cingles Bus, SA",2.45438916500007,41.661438375,"Santa Maria de Palautordera",9630,8259
"99",401,"Can Bosc (av. Vallès)","L0519","Montseny-Sant Celoni-Sant Pere de Vilamajor","Cingles Bus, SA",2.45438916500007,41.661438375,"Santa Maria de Palautordera",9630,8259
"100",409,"Can Bosc (av. Vallès)","L1268","Granollers - Sant Celoni","Cingles Bus, SA",2.45438916500007,41.661438375,"Santa Maria de Palautordera",9630,8259
"101",411,"ctra. Puigcerdà - c. Dotze (Benzinera)","L0102","Barcelona - Lliçà per carretera","Empresa Sagalés, SA",2.19599015600005,41.519525953,"Santa Perpètua de Mogoda",25999,8260
"102",413,"ctra. Puigcerdà - c. Dotze (Benzinera)","L0089","Barcelona-Mollet del Vallès-CIM Vallès","CRA La Hispània, SA",2.19599015600005,41.519525953,"Santa Perpètua de Mogoda",25999,8260
"103",415,"ctra. Puigcerdà - c. Dotze (Benzinera)","L0126","Barcelona - Santa Eulàlia de Ronçana","Empresa Sagalés, SA",2.19599015600005,41.519525953,"Santa Perpètua de Mogoda",25999,8260
"104",417,"ctra. Puigcerdà - c. Dotze (Benzinera)","L0082","Barcelona - Caldes de Montbui (N70)","Ferrocarriles y Transportes, SA",2.19599015600005,41.519525953,"Santa Perpètua de Mogoda",25999,8260
"105",419,"ctra. Puigcerdà - c. Dotze (Benzinera)","L0095","Barcelona - Granollers (N71)","Empresa Sagalés, SA",2.19599015600005,41.519525953,"Santa Perpètua de Mogoda",25999,8260
"106",422,"ctra. Puigcerdà - c. Dotze (Benzinera)","L1230","Barcelona - Riells del Fai (per carretera)","Empresa Sagalés, SA",2.19599015600005,41.519525953,"Santa Perpètua de Mogoda",25999,8260
"107",425,"Santa Susanna","L0552","Palafolls - Calella - Tordera","Barcelona Bus, SL",2.70752863400003,41.634258774,"Santa Susanna",3548,8261
"108",427,"Santa Susanna","L1494","Aeroport de Girona - Tossa de Mar","Barcelona Bus, SL",2.70752863400003,41.634258774,"Santa Susanna",3548,8261
"109",428,"Santa Susanna","L1582","Hospital de Blanes - Hospital de Calella","Barcelona Bus, SL",2.70752863400003,41.634258774,"Santa Susanna",3548,8261
"110",431,"Estació d'FGC Sant Vicenç-Vila (ctra.)","L0091","Barcelona - Esparreguera (N51)","La Hispano Igualadina, SAU",2.01389274000007,41.389114254,"Sant Vicenç dels Horts",28268,8263
"111",435,"Estació d'FGC Sant Vicenç-Vila (ctra.)","L1559","Barcelona - Sant Sadurní d'Anoia (N41)","Soler i Sauret, SA",2.01389274000007,41.389114254,"Sant Vicenç dels Horts",28268,8263
"112",438,"Borgonyà","L1224","Torelló-Sant Quirze de Besora-Montesquiu (SC)","25 Osona Bus, SA",2.24174058600005,42.064475251,"Sant Vicenç de Torelló",2058,8265
"113",442,"Borgonyà","L1400","Vic - Sant Pere de Torelló (feiners)","25 Osona Bus, SA",2.24174058600005,42.064475251,"Sant Vicenç de Torelló",2058,8265
"114",445,"Estació FGC Bellaterra (pl. Pi)","L0512","Montcada-Ripollet-Cerdanyola-UAB-Bellaterra","Autocares R. Font, SA i Martí Renom, SA",2.09039899900006,41.501039903,"Cerdanyola del Vallès",57855,8266
"115",447,"Can Cerdà (D)","L0961","Barcelona - Cerdanyola del Vallès per Horta (A7)","Marfina Bus, SA",2.12246430500005,41.4599723110001,"Cerdanyola del Vallès",57855,8266
"116",448,"Patronat la Flor de Maig","L0961","Barcelona - Cerdanyola del Vallès per Horta (A7)","Marfina Bus, SA",2.12289716200007,41.466947324,"Cerdanyola del Vallès",57855,8266
"117",449,"Universitat Autònoma de Barcelona (Bella","L0541","Olot - UAB per Banyoles","Transportes Eléctricos Interurbanos, SA -TEISA-",2.10708852700003,41.5010806180001,"Cerdanyola del Vallès",57855,8266
"118",451,"Universitat Autònoma de Barcelona (Bella","L0540","Olot - UAB","Transportes Eléctricos Interurbanos, SA -TEISA-",2.10708852700003,41.5010806180001,"Cerdanyola del Vallès",57855,8266
"119",453,"Universitat Autònoma de Barcelona (Bella","L1624","La Granadella - Tarragona - Barcelona","Teresa y José Plana, Empresa Plana, SL",2.10708852700003,41.5010806180001,"Cerdanyola del Vallès",57855,8266
"120",457,"Cercs","L0225","Castellar de n'Hug - Berga - Barcelona","SA Alsina Graells de Auto Transportes",1.86114178800005,42.1461689020001,"Cercs",1150,8268
"121",465,"Cercs","L0414","La Pobla de Lillet - Tarragona - Cambrils","SA Alsina Graells de Auto Transportes",1.86114178800005,42.1461689020001,"Cercs",1150,8268
"122",467,"Garraf","L1186","Olivella - Barcelona","Cintoi Bus, SL",1.90398401600004,41.2558533750001,"Sitges",29553,8270
"123",469,"Vallcarca","L1186","Olivella - Barcelona","Cintoi Bus, SL",1.86258634200004,41.240850471,"Sitges",29553,8270
"124",471,"Sora","L0667","Sant Quirze de Besora-Sora-Sant Quirze de Besora","25 Osona Bus, SA",2.16037062900006,42.1104359940001,"Sora",212,8272
"125",473,"la Torre-ramona","L0676","Santa Maria de Bellver - Barcelona","La Hispano Llacunense, SL",1.82210363600007,41.4221601580001,"Subirats",3104,8273
"126",477,"la Torre-ramona","L1365","T-BUS","La Hispano Llacunense, SL",1.82210363600007,41.4221601580001,"Subirats",3104,8273
"127",484,"el Pago (A) MB0160","L0465","L'Ordal-Vilafranca del Penedès, per Cantallops","Autocars Vendrell, SL",1.81436011000005,41.386024149,"Subirats",3104,8273
"128",485,"el Pago (A) MB0160","L0075","Barcelona (Collblanc)-Avinyonet del Penedès L50","Soler i Sauret, SA",1.81436011000005,41.386024149,"Subirats",3104,8273
"129",486,"el Pago (A) MB0160","L0710","Subirats - Sant Sadurní d'Anoia","Autocars Vendrell, SL",1.81436011000005,41.386024149,"Subirats",3104,8273
"130",489,"el Pago (A) MB0160","L1085","BCN (F.Macià)-Avinyonet per autop.fins Molins L57M","Soler i Sauret, SA",1.81436011000005,41.386024149,"Subirats",3104,8273
"131",491,"Casablanca MB0161","L1365","T-BUS","La Hispano Llacunense, SL",1.83624837700006,41.424168637,"Subirats",3104,8273
"132",498,"Súria (estació d'autobusos)","L0131","Barcelona - Solsona - la Farga de Moles","SA Alsina Graells de Auto Transportes",1.75047323700005,41.832312717,"Súria",5948,8274
"133",500,"Súria (estació d'autobusos)","L1446","Solsona - Manresa - Barcelona","SA Alsina Graells de Auto Transportes",1.75047323700005,41.832312717,"Súria",5948,8274
"134",505,"Tagamanent","L1246","Barcelona - Granollers - Vic (SC)","Empresa Sagalés, SA",2.26689711000006,41.738468567,"Tagamanent",318,8276
"135",507,"Talamanca","L1310","Manresa - Talamanca - Mura","Transbages, SL",1.97790711400006,41.735846931,"Talamanca",209,8277
"136",509,"l'Obac","L0737","Terrassa - Castellbell i el Vilar (el Burés)","Transportes Generales de Olesa, SAU",1.95392714500002,41.61952189,"Vacarisses",6832,8291
"137",511,"Estació de Rodalies Terrassa-Nord (A)","L0741","Terrassa-Mura","Transportes Generales de Olesa, SAU",2.01354829500002,41.569816159,"Terrassa",223627,8279
"138",515,"Estació de Rodalies Terrassa-Nord (A)","L0121","Barcelona-Terrassa-Sabadell-Barcelona (N61)","Marfina Bus, SA",2.01354829500002,41.569816159,"Terrassa",223627,8279
"139",517,"Estació de Rodalies Terrassa-Nord (A)","L1557","Terrassa - Matadepera (N66)","Marfina Bus, SA",2.01354829500002,41.569816159,"Terrassa",223627,8279
"140",518,"av. Josep Tarradellas - pl. Lluís Compan","L0737","Terrassa - Castellbell i el Vilar (el Burés)","Transportes Generales de Olesa, SAU",2.00371331300005,41.5705870370001,"Terrassa",223627,8279
"141",519,"Ca n'Amat de la Muntanya","L0737","Terrassa - Castellbell i el Vilar (el Burés)","Transportes Generales de Olesa, SAU",1.99031031400006,41.584800509,"Terrassa",223627,8279
"142",521,"Parc Vallès - av. Santa Eulàlia","L0232","Castellbisbal - Terrassa - Sabadell (Can Rull) C7","La Vallesana, SA",2.02707618400007,41.5523223540001,"Terrassa",223627,8279
"143",523,"Parc Vallès - av. Santa Eulàlia","L0121","Barcelona-Terrassa-Sabadell-Barcelona (N61)","Marfina Bus, SA",2.02707618400007,41.5523223540001,"Terrassa",223627,8279
"144",525,"Parc Vallès - av. Santa Eulàlia","L0123","Barcelona-Sabadell-Terrassa-Barcelona (N64)","Marfina Bus, SA",2.02707618400007,41.5523223540001,"Terrassa",223627,8279
"145",529,"Parc Vallès - av. Santa Eulàlia","L1586","e2 Terrassa - Barcelona (Sagrera)","Marfina Bus, SA",2.02707618400007,41.5523223540001,"Terrassa",223627,8279
"146",532,"Calcoix","L0167","Blanes - Girona","Barcelona Bus, SL",2.75632365200005,41.7547709900001,"Maçanet de la Selva",7066,17103
"147",534,"c. Borgonyà - Estació","L1400","Vic - Sant Pere de Torelló (feiners)","25 Osona Bus, SA",2.25979865800002,42.0519570280001,"Torelló",14400,8285
"148",536,"c. Borgonyà - Estació","L1401","Vic - Sant Pere de Torelló (festius)","25 Osona Bus, SA",2.25979865800002,42.0519570280001,"Torelló",14400,8285
"149",537,"Vilanova d'Espoia","L0377","Igualada - les Pinedes de l'Ermengol","Montferri Hermanos, SL",1.65416423600004,41.5153078600001,"La Torre de Claramunt",3741,8286
"150",550,"Cal Ticubor","L0402","La Llacuna - Vilafranca del Penedès","La Hispano Llacunense, SL",1.58272870900004,41.426809946,"Torrelles de Foix",2398,8288
"151",552,"les Llambardes","L0402","La Llacuna - Vilafranca del Penedès","La Hispano Llacunense, SL",1.56056532600007,41.4392529040001,"Torrelles de Foix",2398,8288
"152",554,"Torrelles de Foix","L0568","Pontons - Vilafranca del Penedès - Barcelona","La Hispano Igualadina, SAU",1.57061946300007,41.3885234430001,"Torrelles de Foix",2398,8288
"153",568,"Can Coral (Torrelles de Foix)","L0568","Pontons - Vilafranca del Penedès - Barcelona","La Hispano Igualadina, SAU",1.57611164800005,41.4004721310001,"Torrelles de Foix",2398,8288
"154",580,"Vallbona d'Anoia","L0373","Igualada-Barcelona per Capellades","La Hispano Igualadina, SAU",1.70943494000005,41.520066737,"Vallbona d'Anoia",1357,8292
"155",584,"Vallcebre","L0340","Gósol - Bagà","SA Alsina Graells de Auto Transportes",1.81795333000002,42.2031465630001,"Vallcebre",249,8293
"156",586,"Vallcebre","L0341","Gósol - Berga","SA Alsina Graells de Auto Transportes",1.81795333000002,42.2031465630001,"Vallcebre",249,8293
"157",588,"Vallcebre","L0342","Gósol - Guardiola de Berguedà (a la demanda)","SA Alsina Graells de Auto Transportes",1.81795333000002,42.2031465630001,"Vallcebre",249,8293
"158",590,"Santa Maria del Camí","L0361","Guissona - Igualada - Barcelona","La Hispano Igualadina, SAU",1.47351210300008,41.628772896,"Argençola",219,8008
"159",592,"Santa Maria del Camí","L0101","Barcelona - Lleida","SA Alsina Graells de Auto Transportes",1.47351210300008,41.628772896,"Argençola",219,8008
"160",595,"Vilada","L0156","Berga - Ripoll","SA Alsina Graells de Auto Transportes",1.92971267800004,42.136850151,"Vilada",419,8299
"161",599,"Vilada","L0223","Castell de l'Areny - Vilada (a la demanda)","SA Alsina Graells de Auto Transportes",1.92971267800004,42.136850151,"Vilada",419,8299
"162",601,"la Pau (ctra.la Pobla - Dr.Barraquer) MB","L0373","Igualada-Barcelona per Capellades","La Hispano Igualadina, SAU",1.64629454500005,41.5714556820001,"Vilanova del Camí",12596,8302
"163",602,"la Pau (ctra.la Pobla - Dr.Barraquer) MB","L0374","Igualada-Barcelona per Vilafranca del Penedès","La Hispano Igualadina, SAU",1.64629454500005,41.5714556820001,"Vilanova del Camí",12596,8302
"164",604,"la Pau (ctra.la Pobla - Dr.Barraquer) MB","L0377","Igualada - les Pinedes de l'Ermengol","Montferri Hermanos, SL",1.64629454500005,41.5714556820001,"Vilanova del Camí",12596,8302
"165",607,"la Pau (ctra.la Pobla - Dr.Barraquer) MB","L1164","Carme - Igualada","La Hispano Igualadina, SAU",1.64629454500005,41.5714556820001,"Vilanova del Camí",12596,8302
"166",608,"Vilanova de Sau","L0804","Vic - Sau","Comasòlivas Codina, Jordi",2.38256153700007,41.9473778220001,"Vilanova de Sau",312,8303
"167",610,"Vilobí del Penedès","L0309","Font-rubí - Vilafranca del Penedès","La Hispano Igualadina, SAU",1.66492103100006,41.390016701,"Vilobí del Penedès",1102,8304
"168",614,"Vilobí del Penedès","L0568","Pontons - Vilafranca del Penedès - Barcelona","La Hispano Igualadina, SAU",1.66492103100006,41.390016701,"Vilobí del Penedès",1102,8304
"169",621,"Vilanova i la Geltrú (estació d'autobuso","L0818","Vilanova i la Geltrú-Sant Pere de Ribes-Sitges","Teresa y José Plana, Empresa Plana, SL",1.73062256300005,41.2206092370001,"Vilanova i la Geltrú",67733,8307
"170",630,"Vilanova i la Geltrú (estació d'autobuso","L0820","Vilanova i la Geltrú - Vilafranca del Penedès","Teresa y José Plana, Empresa Plana, SL",1.73062256300005,41.2206092370001,"Vilanova i la Geltrú",67733,8307
"171",633,"Vilanova i la Geltrú (estació d'autobuso","L0140","e15 Vilanova i la Geltrú - Barcelona","Cintoi Bus, SL",1.73062256300005,41.2206092370001,"Vilanova i la Geltrú",67733,8307
"172",635,"Vilanova i la Geltrú (estació d'autobuso","L0145","Barcelona-Vilanova i la Geltrú-Vilafranca (N30)","Cintoi-Plana",1.73062256300005,41.2206092370001,"Vilanova i la Geltrú",67733,8307
"173",643,"Vilanova i la Geltrú (estació d'autobuso","L1049","Cubelles - Vilanova i la Geltrú","Cintoi Bus, SL",1.73062256300005,41.2206092370001,"Vilanova i la Geltrú",67733,8307
"174",645,"Vilanova i la Geltrú (estació d'autobuso","L1050","Vendrell-Vilanova i la Geltrú-Bellvitge-Barcelona","Cintoi Bus, SL",1.73062256300005,41.2206092370001,"Vilanova i la Geltrú",67733,8307
"175",655,"Vilanova i la Geltrú (estació d'autobuso","L1054","El Vendrell - Vilanova i la Geltrú","Cintoi Bus, SL",1.73062256300005,41.2206092370001,"Vilanova i la Geltrú",67733,8307
"176",657,"Vilanova i la Geltrú (estació d'autobuso","L1526","l'Arboç - Vilanova i la Geltrú","Cintoi Bus, SL",1.73062256300005,41.2206092370001,"Vilanova i la Geltrú",67733,8307
"177",659,"Vilanova i la Geltrú (estació d'autobuso","L1655","Vilanova i la Geltrú - Tarragona","Cintoi Bus, SL",1.73062256300005,41.2206092370001,"Vilanova i la Geltrú",67733,8307
"178",661,"Vilanova i la Geltrú (estació d'autobuso","L1689","Vilanova i la Geltrú - el Vendrell (N33)","Cintoi Bus, SL",1.73062256300005,41.2206092370001,"Vilanova i la Geltrú",67733,8307
"179",663,"Vilanova i la Geltrú (estació d'autobuso","L1703","Vendrell-Vilanova G-Ribes-BCN (caps setmana estiu)","Cintoi Bus, SL",1.73062256300005,41.2206092370001,"Vilanova i la Geltrú",67733,8307
"180",669,"Vilanova i la Geltrú (estació d'autobuso","L1707","Vendrell-VilanovaG-Sitges-BCN(caps setmana hivern)","Cintoi Bus, SL",1.73062256300005,41.2206092370001,"Vilanova i la Geltrú",67733,8307
"181",675,"Vilanova i la Geltrú (estació d'autobuso","L1715","Vilanova G.-Sitges-St.Pere de Ribes-BCN (Diagonal)","Cintoi Bus, SL",1.73062256300005,41.2206092370001,"Vilanova i la Geltrú",67733,8307
"182",676,"Rupit i Pruit","L0545","Olot - Vic (per la Salut)","Transportes Eléctricos Interurbanos, SA -TEISA-",2.46477533700005,42.0260762830001,"Rupit i Pruit",271,8901
"183",678,"Rupit i Pruit","L1274","Rupit-l'Esquirol-Manlleu-Roda de Ter-Vic (SC)","25 Osona Bus, SA",2.46477533700005,42.0260762830001,"Rupit i Pruit",271,8901
"184",681,"Agullana","L0305","Figueres - els Límits","David i Manel SL",2.84862204800004,42.3946556610001,"Agullana",863,17001
"185",691,"Aiguaviva","L0334","Girona - Santa Coloma de Farners","Transportes Eléctricos Interurbanos, SA -TEISA-",2.76013083700002,41.9369435850001,"Aiguaviva",765,17002
"186",693,"Aeroport de Girona (Terminal)","L0331","Girona - Palamós (nocturn)","SARFA SL",2.76338394200008,41.937986112,"Aiguaviva",765,17002
"187",701,"Aeroport de Girona (Terminal)","L1316","aeroport del Prat-Barcelona-Girona-Figueres per A7","Barcelona Bus, SL",2.76338394200008,41.937986112,"Aiguaviva",765,17002
"188",706,"Aeroport de Girona (Terminal)","L1566","Perpinyà - Girona","David i Manel SL",2.76338394200008,41.937986112,"Aiguaviva",765,17002
"189",708,"NII-Aeroport (Cruïlla)","L0167","Blanes - Girona","Barcelona Bus, SL",2.76634708100005,41.9391810720001,"Aiguaviva",765,17002
"190",710,"Albons (cruïlla)","L1570","Palafrugell - la Bisbal d'Empordà - Figueres","SARFA SL",3.08586893100005,42.102830075,"Albons",759,17004
"191",714,"el Far d'Empordà","L0657","Sant Feliu de Guixols a Figueres","SARFA SL",2.99625416600003,42.2507740720001,"El Far d'Empordà",602,17005
"192",720,"Alp (c. Nord) (A)","L0462","Llívia - Puigcerdà - Barcelona","SA Alsina Graells de Auto Transportes",1.88778532000003,42.372744423,"Alp",1593,17006
"193",721,"Alp (c. Nord) (A)","L0604","Ripoll - Llívia","Transports Mir, SA",1.88778532000003,42.372744423,"Alp",1593,17006
"194",723,"Alp (c. Nord) (A)","L0576","Llívia-Puigcerdà-la Seu d'Urgell-Lleida","SA Alsina Graells de Auto Transportes",1.88778532000003,42.372744423,"Alp",1593,17006
"195",727,"la Molina (Pista llarga)","L0577","Puigcerdà - Ripoll - Girona","Transportes Eléctricos Interurbanos, SA -TEISA-",1.93638017000006,42.3367404410001,"Alp",1593,17006
"196",733,"la Molina","L0604","Ripoll - Llívia","Transports Mir, SA",1.95555311100003,42.3429867410001,"Alp",1593,17006
"197",735,"la Molina","L0577","Puigcerdà - Ripoll - Girona","Transportes Eléctricos Interurbanos, SA -TEISA-",1.95555311100003,42.3429867410001,"Alp",1593,17006
"198",741,"Amer","L0540","Olot - UAB","Transportes Eléctricos Interurbanos, SA -TEISA-",2.60319536400004,42.010579471,"Amer",2332,17007
"199",743,"Amer","L0537","Olot - Lloret de Mar","Transportes Eléctricos Interurbanos, SA -TEISA-",2.60319536400004,42.010579471,"Amer",2332,17007
"200",745,"Amer","L0536","Olot - Girona","Cia. del Ferrocarril de Olot a Gerona, SA",2.60319536400004,42.010579471,"Amer",2332,17007
"201",749,"Amer","L0027","Amer - Santa Coloma de Farners - Sils","Transportes Eléctricos Interurbanos, SA -TEISA-",2.60319536400004,42.010579471,"Amer",2332,17007
"202",751,"Amer","L0542","Olot - Barcelona per Amer","Transportes Eléctricos Interurbanos, SA -TEISA-",2.60319536400004,42.010579471,"Amer",2332,17007
"203",753,"Anglès","L0540","Olot - UAB","Transportes Eléctricos Interurbanos, SA -TEISA-",2.64057672700005,41.956212222,"Anglès",5654,17008
"204",755,"Anglès","L0537","Olot - Lloret de Mar","Transportes Eléctricos Interurbanos, SA -TEISA-",2.64057672700005,41.956212222,"Anglès",5654,17008
"205",757,"Anglès","L0536","Olot - Girona","Cia. del Ferrocarril de Olot a Gerona, SA",2.64057672700005,41.956212222,"Anglès",5654,17008
"206",762,"Anglès","L0027","Amer - Santa Coloma de Farners - Sils","Transportes Eléctricos Interurbanos, SA -TEISA-",2.64057672700005,41.956212222,"Anglès",5654,17008
"207",764,"Anglès","L0542","Olot - Barcelona per Amer","Transportes Eléctricos Interurbanos, SA -TEISA-",2.64057672700005,41.956212222,"Anglès",5654,17008
"208",766,"Anglès","L0661","Girona a Osor per Anglès","Hispano Hilarienca, SA",2.64057672700005,41.956212222,"Anglès",5654,17008
"209",770,"Arbúcies","L0660","Sant Hilari Sacalm-Barcelona","Hispano Hilarienca, SA",2.51403156900005,41.815267078,"Arbúcies",6608,17009
"210",772,"Arbúcies","L0659","Sant Hilari Sacalm - Arbúcies - Girona","Hispano Hilarienca, SA",2.51403156900005,41.815267078,"Arbúcies",6608,17009
"211",774,"Arbúcies","L0319","Girona - Sant Celoni (per Sant Hilari Sacalm)","Hispano Hilarienca, SA",2.51403156900005,41.815267078,"Arbúcies",6608,17009
"212",780,"Arbúcies","L1560","Breda - Girona","Hispano Hilarienca, SA",2.51403156900005,41.815267078,"Arbúcies",6608,17009
"213",781,"Argelaguer","L0541","Olot - UAB per Banyoles","Transportes Eléctricos Interurbanos, SA -TEISA-",2.64218468700005,42.216010139,"Argelaguer",396,17010
"214",783,"Argelaguer","L0803","Olot - Figueres","Transportes Eléctricos Interurbanos, SA -TEISA-",2.64218468700005,42.216010139,"Argelaguer",396,17010
"215",785,"Argelaguer","L0326","Girona - Banyoles - Olot","Transportes Eléctricos Interurbanos, SA -TEISA-",2.64218468700005,42.216010139,"Argelaguer",396,17010
"216",787,"Argelaguer","L0534","Olot - Barcelona","Transportes Eléctricos Interurbanos, SA -TEISA-",2.64218468700005,42.216010139,"Argelaguer",396,17010
"217",789,"Argelaguer","L0163","Besalú-Castellfollit-Olot-Sant Esteve-les Planes","Transportes Eléctricos Interurbanos, SA -TEISA-",2.64218468700005,42.216010139,"Argelaguer",396,17010
"218",794,"l'Armentera","L0657","Sant Feliu de Guixols a Figueres","SARFA SL",3.07310166800005,42.1696397760001,"L'Armentera",951,17011
"219",800,"Avinyonet de Puigventós","L0442","Lladó - Figueres","Transportes Eléctricos Interurbanos, SA -TEISA-",2.91896828500006,42.2454768380001,"Avinyonet de Puigventós",1641,17012
"220",802,"Avinyonet de Puigventós","L0824","Vilarig - Figueres","Transportes Eléctricos Interurbanos, SA -TEISA-",2.91896828500006,42.2454768380001,"Avinyonet de Puigventós",1641,17012
"221",805,"Avinyonet de Puigventós","L0803","Olot - Figueres","Transportes Eléctricos Interurbanos, SA -TEISA-",2.91896828500006,42.2454768380001,"Avinyonet de Puigventós",1641,17012
"222",807,"Begur","L0657","Sant Feliu de Guixols a Figueres","SARFA SL",3.20638831000002,41.953617089,"Begur",3891,17013
"223",809,"Begur","L0134","Barcelona-Torroella de Montgrí","SARFA SL",3.20638831000002,41.953617089,"Begur",3891,17013
"224",820,"Begur","L0758","Torroella de Montgrí - Palafrugell","SARFA SL",3.20638831000002,41.953617089,"Begur",3891,17013
"225",822,"Esclanyà","L0758","Torroella de Montgrí - Palafrugell","SARFA SL",3.18820574100005,41.9292850630001,"Begur",3891,17013
"226",824,"Banyoles","L0541","Olot - UAB per Banyoles","Transportes Eléctricos Interurbanos, SA -TEISA-",2.76441133300006,42.117382004,"Banyoles",20053,17015
"227",826,"Banyoles","L0301","Figueres - Banyoles (per Esponellà)","Transportes Eléctricos Interurbanos, SA -TEISA-",2.76441133300006,42.117382004,"Banyoles",20053,17015
"228",828,"Banyoles","L0062","Banyoles - Olot (per Mieres)","Transportes Eléctricos Interurbanos, SA -TEISA-",2.76441133300006,42.117382004,"Banyoles",20053,17015
"229",832,"Banyoles","L0326","Girona - Banyoles - Olot","Transportes Eléctricos Interurbanos, SA -TEISA-",2.76441133300006,42.117382004,"Banyoles",20053,17015
"230",836,"Banyoles","L0534","Olot - Barcelona","Transportes Eléctricos Interurbanos, SA -TEISA-",2.76441133300006,42.117382004,"Banyoles",20053,17015
"231",838,"Banyoles","L1423","Fontcoberta - Banyoles - Porqueres - Camòs","Transportes Eléctricos Interurbanos, SA -TEISA-",2.76441133300006,42.117382004,"Banyoles",20053,17015
"232",840,"Banyoles","L1424","Banyoles - Riudellots de la Creu","Transportes Eléctricos Interurbanos, SA -TEISA-",2.76441133300006,42.117382004,"Banyoles",20053,17015
"233",845,"Bàscara","L0887","Ordis - Figueres - Vilafant (CAP)","Estarriol Bus, SL",2.90931516700005,42.155415109,"Bàscara",1001,17016
"234",849,"Calabuig","L0887","Ordis - Figueres - Vilafant (CAP)","Estarriol Bus, SL",2.92447900700006,42.147545468,"Bàscara",1001,17016
"235",853,"Bellcaire d'Empordà","L0657","Sant Feliu de Guixols a Figueres","SARFA SL",3.09723453800007,42.0771434060001,"Bellcaire d'Empordà",678,17018
"236",857,"Bellcaire d'Empordà","L0134","Barcelona-Torroella de Montgrí","SARFA SL",3.09723453800007,42.0771434060001,"Bellcaire d'Empordà",678,17018
"237",868,"Bellcaire d'Empordà","L1611","l'Escala - Figueres per càmpings","SARFA SL",3.09723453800007,42.0771434060001,"Bellcaire d'Empordà",678,17018
"238",872,"Besalú","L0541","Olot - UAB per Banyoles","Transportes Eléctricos Interurbanos, SA -TEISA-",2.69759237600005,42.200291436,"Besalú",2487,17019
"239",874,"Besalú","L0803","Olot - Figueres","Transportes Eléctricos Interurbanos, SA -TEISA-",2.69759237600005,42.200291436,"Besalú",2487,17019
"240",876,"Besalú","L0326","Girona - Banyoles - Olot","Transportes Eléctricos Interurbanos, SA -TEISA-",2.69759237600005,42.200291436,"Besalú",2487,17019
"241",878,"Besalú","L0534","Olot - Barcelona","Transportes Eléctricos Interurbanos, SA -TEISA-",2.69759237600005,42.200291436,"Besalú",2487,17019
"242",880,"Besalú","L0163","Besalú-Castellfollit-Olot-Sant Esteve-les Planes","Transportes Eléctricos Interurbanos, SA -TEISA-",2.69759237600005,42.200291436,"Besalú",2487,17019
"243",885,"Besalú","L1643","e1 Girona - Olot exprés","Transportes Eléctricos Interurbanos, SA -TEISA-",2.69759237600005,42.200291436,"Besalú",2487,17019
"244",887,"Bescanó","L0536","Olot - Girona","Cia. del Ferrocarril de Olot a Gerona, SA",2.72979749300004,41.9672739310001,"Bescanó",4991,17020
"245",892,"la Bisbal d'Empordà","L0134","Barcelona-Torroella de Montgrí","SARFA SL",3.03859141500004,41.961001492,"La Bisbal d'Empordà",11159,17022
"246",906,"la Bisbal d'Empordà","L0760","Torroella de Montgrí - la Bisbal d'Empordà","SARFA SL",3.03859141500004,41.961001492,"La Bisbal d'Empordà",11159,17022
"247",908,"la Bisbal d'Empordà","L0762","Torroella de Montgrí-Vulpellac-la Bisbal d'Empordà","SARFA SL",3.03859141500004,41.961001492,"La Bisbal d'Empordà",11159,17022
"248",910,"la Bisbal d'Empordà","L1570","Palafrugell - la Bisbal d'Empordà - Figueres","SARFA SL",3.03859141500004,41.961001492,"La Bisbal d'Empordà",11159,17022
"249",914,"Blanes (Rª Marina)","L0167","Blanes - Girona","Barcelona Bus, SL",2.78815334000006,41.6699870790001,"Blanes",39914,17023
"250",916,"Blanes (Telefónica)","L0167","Blanes - Girona","Barcelona Bus, SL",2.78742087900002,41.6771914660001,"Blanes",39914,17023
"251",918,"Blanes (Estació Bus)","L0167","Blanes - Girona","Barcelona Bus, SL",2.78286521200005,41.6671489560001,"Blanes",39914,17023
"252",920,"Blanes (Pl.Catalunya)","L0168","Blanes - Lloret de Mar","Transportes Pujol y Pujol, SL",2.79011653000003,41.672116375,"Blanes",39914,17023
"253",922,"Blanes (Pl.Catalunya)","L0167","Blanes - Girona","Barcelona Bus, SL",2.79011653000003,41.672116375,"Blanes",39914,17023
"254",924,"Bolvir","L0576","Llívia-Puigcerdà-la Seu d'Urgell-Lleida","SA Alsina Graells de Auto Transportes",1.88013356500005,42.4171590080001,"Bolvir",375,17024
"255",928,"Borrassà","L0887","Ordis - Figueres - Vilafant (CAP)","Estarriol Bus, SL",2.92600409200003,42.220119851,"Borrassà",733,17026
"256",932,"Breda","L0660","Sant Hilari Sacalm-Barcelona","Hispano Hilarienca, SA",2.55984381900004,41.7483497480001,"Breda",3762,17027
"257",934,"Breda","L0659","Sant Hilari Sacalm - Arbúcies - Girona","Hispano Hilarienca, SA",2.55984381900004,41.7483497480001,"Breda",3762,17027
"258",938,"Breda","L0319","Girona - Sant Celoni (per Sant Hilari Sacalm)","Hispano Hilarienca, SA",2.55984381900004,41.7483497480001,"Breda",3762,17027
"259",942,"Breda (estació)","L0660","Sant Hilari Sacalm-Barcelona","Hispano Hilarienca, SA",2.55526419800003,41.749683168,"Breda",3762,17027
"260",944,"Breda (estació)","L0319","Girona - Sant Celoni (per Sant Hilari Sacalm)","Hispano Hilarienca, SA",2.55526419800003,41.749683168,"Breda",3762,17027
"261",948,"Breda (estació)","L1560","Breda - Girona","Hispano Hilarienca, SA",2.55526419800003,41.749683168,"Breda",3762,17027
"262",949,"Avinyó Nou (Dr.Parellada - Avenir) MB015","L0531","Olesa de Bonesvalls - Vilafranca del Penedès","La Hispano Igualadina, SAU",1.77690778800007,41.3607717150001,"Avinyonet del Penedès",1697,8013
"263",953,"Brunyola","L0537","Olot - Lloret de Mar","Transportes Eléctricos Interurbanos, SA -TEISA-",2.66604273500008,41.901906287,"Brunyola i Sant Martí Sapresa",389,17028
"264",955,"Sant Martí Sapresa","L0540","Olot - UAB","Transportes Eléctricos Interurbanos, SA -TEISA-",2.65285500800007,41.9193853850001,"Brunyola i Sant Martí Sapresa",389,17028
"265",957,"Sant Martí Sapresa","L0542","Olot - Barcelona per Amer","Transportes Eléctricos Interurbanos, SA -TEISA-",2.65285500800007,41.9193853850001,"Brunyola i Sant Martí Sapresa",389,17028
"266",959,"Boadella d'Empordà","L0466","Maçanet de Cabrenys - Figueres","David i Manel SL",2.85686122100003,42.3298313700001,"Boadella i les Escaules",272,17029
"267",961,"Cabanes","L0313","Garriguella - Figueres","Ampurdan Bus, SL",2.97688553200004,42.3088709730001,"Cabanes",968,17030
"268",965,"Cabanes","L0314","Garriguella - Sant Climent - Figueres","Ampurdan Bus, SL",2.97688553200004,42.3088709730001,"Cabanes",968,17030
"269",971,"Queixàs","L0803","Olot - Figueres","Transportes Eléctricos Interurbanos, SA -TEISA-",2.80133806600003,42.2119560620001,"Cabanelles",267,17031
"270",973,"Cadaqués","L1129","Figueres - Vilajuïga - Pau - Palau - Roses","SARFA SL",3.27414772600002,42.2896956610001,"Cadaqués",2695,17032
"271",974,"Cadaqués","L1198","Figueres - Portbou","SARFA SL",3.27414772600002,42.2896956610001,"Cadaqués",2695,17032
"272",976,"Cadaqués","L1690","Circumval·lació Cap de Creus","SARFA SL",3.27414772600002,42.2896956610001,"Cadaqués",2695,17032
"273",978,"Caldes de Malavella","L0331","Girona - Palamós (nocturn)","SARFA SL",2.78887764700005,41.8414195030001,"Caldes de Malavella",7872,17033
"274",986,"Caldes de Malavella","L0327","Girona - Caldes de Malavella","Cia. del Ferrocarril de Olot a Gerona, SA",2.78887764700005,41.8414195030001,"Caldes de Malavella",7872,17033
"275",988,"Caldes de Malavella","L0885","Lloret de Mar - Girona","Autocars R. Mas, SL",2.78887764700005,41.8414195030001,"Caldes de Malavella",7872,17033
"276",989,"Calonge","L0331","Girona - Palamós (nocturn)","SARFA SL",3.07969800600006,41.8585188590001,"Calonge i Sant Antoni",11331,17034
"277",997,"Calonge","L0657","Sant Feliu de Guixols a Figueres","SARFA SL",3.07969800600006,41.8585188590001,"Calonge i Sant Antoni",11331,17034
"278",999,"Calonge","L0134","Barcelona-Torroella de Montgrí","SARFA SL",3.07969800600006,41.8585188590001,"Calonge i Sant Antoni",11331,17034
"279",1009,"Calonge","L1727","(e3) Palafrugell - Palamós - Girona","SARFA SL",3.07969800600006,41.8585188590001,"Calonge i Sant Antoni",11331,17034
"280",1011,"Sant Antoni de Calonge","L0331","Girona - Palamós (nocturn)","SARFA SL",3.10292129200008,41.8476380770001,"Calonge i Sant Antoni",11331,17034
"281",1019,"Sant Antoni de Calonge","L0657","Sant Feliu de Guixols a Figueres","SARFA SL",3.10292129200008,41.8476380770001,"Calonge i Sant Antoni",11331,17034
"282",1021,"Sant Antoni de Calonge","L0134","Barcelona-Torroella de Montgrí","SARFA SL",3.10292129200008,41.8476380770001,"Calonge i Sant Antoni",11331,17034
"283",1041,"Sant Antoni de Calonge","L1727","(e3) Palafrugell - Palamós - Girona","SARFA SL",3.10292129200008,41.8476380770001,"Calonge i Sant Antoni",11331,17034
"284",1043,"Calonge (Avda. Unio)","L0134","Barcelona-Torroella de Montgrí","SARFA SL",3.07386106400003,41.8535869830001,"Calonge i Sant Antoni",11331,17034
"285",1063,"Campdevànol","L0051","Bagà - Ripoll","Transports Mir, SA",2.16705599200003,42.2223610990001,"Campdevànol",3232,17036
"286",1067,"Campdevànol","L0691","Setcases - Campdevànol","Transportes Eléctricos Interurbanos, SA -TEISA-",2.16705599200003,42.2223610990001,"Campdevànol",3232,17036
"287",1073,"Campdevànol","L0604","Ripoll - Llívia","Transports Mir, SA",2.16705599200003,42.2223610990001,"Campdevànol",3232,17036
"288",1075,"Campdevànol","L0577","Puigcerdà - Ripoll - Girona","Transportes Eléctricos Interurbanos, SA -TEISA-",2.16705599200003,42.2223610990001,"Campdevànol",3232,17036
"289",1079,"Campdevànol","L0208","Camprodon - Barcelona","Transportes Eléctricos Interurbanos, SA -TEISA-",2.16705599200003,42.2223610990001,"Campdevànol",3232,17036
"290",1082,"Campdevànol","L1286","Vall de Ribes-Ribes de Freser-Campdevànol-Ripoll","Transports Mir, SA",2.16705599200003,42.2223610990001,"Campdevànol",3232,17036
"291",1101,"Campdevànol","L1309","Ripoll - Campdevànol","Transports Mir, SA",2.16705599200003,42.2223610990001,"Campdevànol",3232,17036
"292",1107,"Sant Cristòfol","L1286","Vall de Ribes-Ribes de Freser-Campdevànol-Ripoll","Transports Mir, SA",2.16816950700007,42.2270704260001,"Campdevànol",3232,17036
"293",1120,"Sant Cristòfol","L1309","Ripoll - Campdevànol","Transports Mir, SA",2.16816950700007,42.2270704260001,"Campdevànol",3232,17036
"294",1126,"la Colònia Pernau","L1286","Vall de Ribes-Ribes de Freser-Campdevànol-Ripoll","Transports Mir, SA",2.16581544400003,42.2374374870001,"Campdevànol",3232,17036
"295",1145,"la Colònia Pernau","L1309","Ripoll - Campdevànol","Transports Mir, SA",2.16581544400003,42.2374374870001,"Campdevànol",3232,17036
"296",1148,"Campdevànol (Hospital)","L1286","Vall de Ribes-Ribes de Freser-Campdevànol-Ripoll","Transports Mir, SA",2.16589437500005,42.220398307,"Campdevànol",3232,17036
"297",1167,"Campdevànol (Hospital)","L1309","Ripoll - Campdevànol","Transports Mir, SA",2.16589437500005,42.220398307,"Campdevànol",3232,17036
"298",1173,"Campelles","L1286","Vall de Ribes-Ribes de Freser-Campdevànol-Ripoll","Transports Mir, SA",2.13994257900004,42.2934267640001,"Campelles",140,17037
"299",1184,"Campllong","L0327","Girona - Caldes de Malavella","Cia. del Ferrocarril de Olot a Gerona, SA",2.83143052900004,41.897071225,"Campllong",537,17038
"300",1186,"Camprodon","L0691","Setcases - Campdevànol","Transportes Eléctricos Interurbanos, SA -TEISA-",2.36521159600005,42.309800169,"Camprodon",2298,17039
"301",1197,"Camprodon","L0208","Camprodon - Barcelona","Transportes Eléctricos Interurbanos, SA -TEISA-",2.36521159600005,42.309800169,"Camprodon",2298,17039
"302",1199,"Camprodon","L0210","Camprodon - Olot","Transportes Eléctricos Interurbanos, SA -TEISA-",2.36521159600005,42.309800169,"Camprodon",2298,17039
"303",1203,"Camprodon","L0330","Olot - Ripoll per Sant Joan de les Abadesses","Transportes Eléctricos Interurbanos, SA -TEISA-",2.36521159600005,42.309800169,"Camprodon",2298,17039
"304",1205,"la Colònia Estabanell","L0691","Setcases - Campdevànol","Transportes Eléctricos Interurbanos, SA -TEISA-",2.35921341800002,42.2946545090001,"Camprodon",2298,17039
"305",1213,"la Colònia Estabanell","L0208","Camprodon - Barcelona","Transportes Eléctricos Interurbanos, SA -TEISA-",2.35921341800002,42.2946545090001,"Camprodon",2298,17039
"306",1215,"la Colònia Estabanell","L0210","Camprodon - Olot","Transportes Eléctricos Interurbanos, SA -TEISA-",2.35921341800002,42.2946545090001,"Camprodon",2298,17039
"307",1219,"la Colònia Estabanell","L0330","Olot - Ripoll per Sant Joan de les Abadesses","Transportes Eléctricos Interurbanos, SA -TEISA-",2.35921341800002,42.2946545090001,"Camprodon",2298,17039
"308",1221,"Canet d'Adri","L0322","Girona - Sant Esteve de Llémena","Hispano Hilarienca, SA",2.74159839300006,42.02749262,"Canet d'Adri",729,17040
"309",1223,"Cantallops d'Empordà","L0305","Figueres - els Límits","David i Manel SL",2.92544107500004,42.4202274130001,"Cantallops",309,17041
"310",1231,"els Banys de la Mercè","L0305","Figueres - els Límits","David i Manel SL",2.89616421900007,42.3658441320001,"Capmany",611,17042
"311",1240,"Capmany","L0314","Garriguella - Sant Climent - Figueres","Ampurdan Bus, SL",2.92237658300007,42.37208808,"Capmany",611,17042
"312",1246,"Queralbs","L1286","Vall de Ribes-Ribes de Freser-Campdevànol-Ripoll","Transports Mir, SA",2.16235197400005,42.347989312,"Queralbs",188,17043
"313",1256,"Cassà de la Selva","L0331","Girona - Palamós (nocturn)","SARFA SL",2.87719454600006,41.8897076530001,"Cassà de la Selva",10410,17044
"314",1264,"Cassà de la Selva","L0333","Girona - Sant Feliu de Guíxols - s'Agaró","Transportes Eléctricos Interurbanos, SA -TEISA-",2.87719454600006,41.8897076530001,"Cassà de la Selva",10410,17044
"315",1271,"Cassà de la Selva","L0327","Girona - Caldes de Malavella","Cia. del Ferrocarril de Olot a Gerona, SA",2.87719454600006,41.8897076530001,"Cassà de la Selva",10410,17044
"316",1273,"Cassà de la Selva","L1695","Girona-aeroport-St.Feliu-Platja d'Aro","Transportes Eléctricos Interurbanos, SA -TEISA-",2.87719454600006,41.8897076530001,"Cassà de la Selva",10410,17044
"317",1274,"Castellfollit de la Roca","L0541","Olot - UAB per Banyoles","Transportes Eléctricos Interurbanos, SA -TEISA-",2.54718695800005,42.2191328910001,"Castellfollit de la Roca",947,17046
"318",1276,"Castellfollit de la Roca","L0803","Olot - Figueres","Transportes Eléctricos Interurbanos, SA -TEISA-",2.54718695800005,42.2191328910001,"Castellfollit de la Roca",947,17046
"319",1278,"Castellfollit de la Roca","L0326","Girona - Banyoles - Olot","Transportes Eléctricos Interurbanos, SA -TEISA-",2.54718695800005,42.2191328910001,"Castellfollit de la Roca",947,17046
"320",1280,"Castellfollit de la Roca","L0534","Olot - Barcelona","Transportes Eléctricos Interurbanos, SA -TEISA-",2.54718695800005,42.2191328910001,"Castellfollit de la Roca",947,17046
"321",1282,"Castellfollit de la Roca","L0163","Besalú-Castellfollit-Olot-Sant Esteve-les Planes","Transportes Eléctricos Interurbanos, SA -TEISA-",2.54718695800005,42.2191328910001,"Castellfollit de la Roca",947,17046
"322",1290,"Castelló d'Empúries","L1475","Figueres - Roses","SARFA SL",3.07683817600002,42.255854949,"Castelló d'Empúries",11100,17047
"323",1292,"Empuriabrava","L1475","Figueres - Roses","SARFA SL",3.10264762600002,42.262535411,"Castelló d'Empúries",11100,17047
"324",1294,"Empuriabrava","L1516","Roses - aeroport de Girona","Barcelona Bus, SL",3.10264762600002,42.262535411,"Castelló d'Empúries",11100,17047
"325",1296,"Castell d'Aro","L1461","Girona-Llagostera-Palamós-la Bisbal-Girona(circuït","SARFA SL",3.05476696400007,41.8119406210001,"Castell-Platja d'Aro",11030,17048
"326",1301,"Platja d'Aro","L0331","Girona - Palamós (nocturn)","SARFA SL",3.06240066300006,41.8127203330001,"Castell-Platja d'Aro",11030,17048
"327",1309,"Platja d'Aro","L0657","Sant Feliu de Guixols a Figueres","SARFA SL",3.06240066300006,41.8127203330001,"Castell-Platja d'Aro",11030,17048
"328",1311,"Platja d'Aro","L0134","Barcelona-Torroella de Montgrí","SARFA SL",3.06240066300006,41.8127203330001,"Castell-Platja d'Aro",11030,17048
"329",1333,"s'Agaró","L0331","Girona - Palamós (nocturn)","SARFA SL",3.05549517600002,41.7908189030001,"Castell-Platja d'Aro",11030,17048
"330",1341,"s'Agaró","L0333","Girona - Sant Feliu de Guíxols - s'Agaró","Transportes Eléctricos Interurbanos, SA -TEISA-",3.05549517600002,41.7908189030001,"Castell-Platja d'Aro",11030,17048
"331",1342,"s'Agaró","L0657","Sant Feliu de Guixols a Figueres","SARFA SL",3.05549517600002,41.7908189030001,"Castell-Platja d'Aro",11030,17048
"332",1344,"s'Agaró","L0134","Barcelona-Torroella de Montgrí","SARFA SL",3.05549517600002,41.7908189030001,"Castell-Platja d'Aro",11030,17048
"333",1366,"s'Agaró","L1461","Girona-Llagostera-Palamós-la Bisbal-Girona(circuït","SARFA SL",3.05549517600002,41.7908189030001,"Castell-Platja d'Aro",11030,17048
"334",1375,"s'Agaró","L1556","Girona-la Bisbal-Palamós-Llagostera-Girona(circuït","SARFA SL",3.05549517600002,41.7908189030001,"Castell-Platja d'Aro",11030,17048
"335",1382,"s'Agaró","L1695","Girona-aeroport-St.Feliu-Platja d'Aro","Transportes Eléctricos Interurbanos, SA -TEISA-",3.05549517600002,41.7908189030001,"Castell-Platja d'Aro",11030,17048
"336",1383,"Sant jordi - Internacional","L1461","Girona-Llagostera-Palamós-la Bisbal-Girona(circuït","SARFA SL",3.05475492500005,41.8119406270001,"Castell-Platja d'Aro",11030,17048
"337",1392,"Sant jordi - Internacional","L1556","Girona-la Bisbal-Palamós-Llagostera-Girona(circuït","SARFA SL",3.05475492500005,41.8119406270001,"Castell-Platja d'Aro",11030,17048
"338",1399,"Cervià de Ter","L0796","Verges - Girona","Autocars Martí Pi, SA (AMPSA)",2.90909206400005,42.065953445,"Cervià de Ter",966,17050
"339",1401,"Cervià de Ter","L0440","L'Estartit - Girona","Autocars Martí Pi, SA (AMPSA)",2.90909206400005,42.065953445,"Cervià de Ter",966,17050
"340",1403,"Raset","L0796","Verges - Girona","Autocars Martí Pi, SA (AMPSA)",2.93291274800004,42.0690050520001,"Cervià de Ter",966,17050
"341",1405,"Raset","L0440","L'Estartit - Girona","Autocars Martí Pi, SA (AMPSA)",2.93291274800004,42.0690050520001,"Cervià de Ter",966,17050
"342",1407,"Cistella","L0824","Vilarig - Figueres","Transportes Eléctricos Interurbanos, SA -TEISA-",2.84971014800004,42.2694627180001,"Cistella",282,17051
"343",1410,"Vilarig","L0824","Vilarig - Figueres","Transportes Eléctricos Interurbanos, SA -TEISA-",2.83404648600003,42.2867510890001,"Cistella",282,17051
"344",1413,"Siurana d'Empordà","L0887","Ordis - Figueres - Vilafant (CAP)","Estarriol Bus, SL",2.99583250300003,42.210939174,"Siurana",171,17052
"345",1417,"Colomers","L0796","Verges - Girona","Autocars Martí Pi, SA (AMPSA)",2.98587822100006,42.083605392,"Colomers",174,17055
"346",1419,"Colomers","L0440","L'Estartit - Girona","Autocars Martí Pi, SA (AMPSA)",2.98587822100006,42.083605392,"Colomers",174,17055
"347",1421,"Borgonyà del Terri","L0326","Girona - Banyoles - Olot","Transportes Eléctricos Interurbanos, SA -TEISA-",2.79101757100005,42.101131798,"Porqueres",4677,17137
"348",1425,"Borgonyà del Terri","L1424","Banyoles - Riudellots de la Creu","Transportes Eléctricos Interurbanos, SA -TEISA-",2.79101757100005,42.101131798,"Porqueres",4677,17137
"349",1426,"Cornellà del Terri","L0541","Olot - UAB per Banyoles","Transportes Eléctricos Interurbanos, SA -TEISA-",2.81534453600005,42.086501909,"Cornellà del Terri",2399,17056
"350",1428,"Cornellà del Terri","L0326","Girona - Banyoles - Olot","Transportes Eléctricos Interurbanos, SA -TEISA-",2.81534453600005,42.086501909,"Cornellà del Terri",2399,17056
"351",1432,"Cornellà del Terri","L0534","Olot - Barcelona","Transportes Eléctricos Interurbanos, SA -TEISA-",2.81534453600005,42.086501909,"Cornellà del Terri",2399,17056
"352",1434,"Cornellà del Terri","L0980","BUS PLA DE L'ESTANY","Transportes Eléctricos Interurbanos, SA -TEISA-",2.81534453600005,42.086501909,"Cornellà del Terri",2399,17056
"353",1438,"Cornellà del Terri","L1424","Banyoles - Riudellots de la Creu","Transportes Eléctricos Interurbanos, SA -TEISA-",2.81534453600005,42.086501909,"Cornellà del Terri",2399,17056
"354",1442,"Corçà","L0760","Torroella de Montgrí - la Bisbal d'Empordà","SARFA SL",3.01580291600004,41.9882792010001,"Corçà",1268,17057
"355",1444,"Corçà","L1570","Palafrugell - la Bisbal d'Empordà - Figueres","SARFA SL",3.01580291600004,41.9882792010001,"Corçà",1268,17057
"356",1448,"Casavells","L0760","Torroella de Montgrí - la Bisbal d'Empordà","SARFA SL",3.03172068400005,42.0007681660001,"Corçà",1268,17057
"357",1450,"Casavells","L1570","Palafrugell - la Bisbal d'Empordà - Figueres","SARFA SL",3.03172068400005,42.0007681660001,"Corçà",1268,17057
"358",1454,"Crespià","L0301","Figueres - Banyoles (per Esponellà)","Transportes Eléctricos Interurbanos, SA -TEISA-",2.79972995300005,42.1879333370001,"Crespià",254,17058
"359",1456,"la Guixera","L0803","Olot - Figueres","Transportes Eléctricos Interurbanos, SA -TEISA-",2.77401856700004,42.205204784,"Crespià",254,17058
"360",1458,"Darnius","L0466","Maçanet de Cabrenys - Figueres","David i Manel SL",2.83406922300003,42.3658431320001,"Darnius",537,17060
"361",1460,"Das","L0576","Llívia-Puigcerdà-la Seu d'Urgell-Lleida","SA Alsina Graells de Auto Transportes",1.86361553100005,42.3693733220001,"Das",234,17061
"362",1464,"l'Escala","L0657","Sant Feliu de Guixols a Figueres","SARFA SL",3.13639073900003,42.116110758,"L'Escala",10244,17062
"363",1470,"l'Escala","L0134","Barcelona-Torroella de Montgrí","SARFA SL",3.13639073900003,42.116110758,"L'Escala",10244,17062
"364",1481,"l'Escala","L1611","l'Escala - Figueres per càmpings","SARFA SL",3.13639073900003,42.116110758,"L'Escala",10244,17062
"365",1485,"Espolla","L0314","Garriguella - Sant Climent - Figueres","Ampurdan Bus, SL",3.00190732700003,42.3868482710001,"Espolla",412,17064
"366",1491,"Esponellà","L0301","Figueres - Banyoles (per Esponellà)","Transportes Eléctricos Interurbanos, SA -TEISA-",2.79496879700002,42.1772343600001,"Esponellà",463,17065
"367",1493,"Figueres (Pl. del Sol)","L0442","Lladó - Figueres","Transportes Eléctricos Interurbanos, SA -TEISA-",2.95744012400007,42.2658247040001,"Figueres",47235,17066
"368",1494,"Figueres (Pl. del Sol)","L0824","Vilarig - Figueres","Transportes Eléctricos Interurbanos, SA -TEISA-",2.95744012400007,42.2658247040001,"Figueres",47235,17066
"369",1497,"Figueres (Pl. del Sol)","L1512","Figueres - Vilafant Estació TAV","Transportes Eléctricos Interurbanos, SA -TEISA-",2.95744012400007,42.2658247040001,"Figueres",47235,17066
"370",1499,"Marca de l'Ham","L1475","Figueres - Roses","SARFA SL",2.96446008600003,42.2668898320001,"Figueres",47235,17066
"371",1501,"Flaçà","L0439","L'Estartit - Flaçà","Autocars Martí Pi, SA (AMPSA)",2.95763507900006,42.0466174860001,"Flaçà",1130,17067
"372",1502,"Foixà","L0439","L'Estartit - Flaçà","Autocars Martí Pi, SA (AMPSA)",3.00099077500005,42.041770743,"Foixà",303,17068
"373",1503,"Fontcoberta","L0301","Figueres - Banyoles (per Esponellà)","Transportes Eléctricos Interurbanos, SA -TEISA-",2.76969619900007,42.1445201720001,"Fontcoberta",1469,17071
"374",1505,"les Gunyoles","L0531","Olesa de Bonesvalls - Vilafranca del Penedès","La Hispano Igualadina, SAU",1.78184611600005,41.3536812190001,"Avinyonet del Penedès",1697,8013
"375",1509,"Fornells (N-II/ Hotel F. Park)","L0328","Girona-Fornells de la Selva-Aeroport costa Brava","Barcelona Bus, SL",2.80640697600006,41.943867061,"Fornells de la Selva",2670,17073
"376",1511,"Fornells (Pol. Ind/N-II)","L0327","Girona - Caldes de Malavella","Cia. del Ferrocarril de Olot a Gerona, SA",2.79839830300006,41.93560309,"Fornells de la Selva",2670,17073
"377",1513,"Fortià","L0657","Sant Feliu de Guixols a Figueres","SARFA SL",3.03832708300007,42.2440580520001,"Fortià",787,17074
"378",1519,"Garrigàs","L0887","Ordis - Figueres - Vilafant (CAP)","Estarriol Bus, SL",2.95241477700006,42.192421331,"Garrigàs",451,17075
"379",1523,"Tonyà","L0887","Ordis - Figueres - Vilafant (CAP)","Estarriol Bus, SL",2.97641452000005,42.205370907,"Garrigàs",451,17075
"380",1527,"Vilajoan","L0887","Ordis - Figueres - Vilafant (CAP)","Estarriol Bus, SL",2.95149137400006,42.1804334610001,"Garrigàs",451,17075
"381",1527,"Arenys d'Empordà","L0887","Ordis - Figueres - Vilafant (CAP)","Estarriol Bus, SL",2.95149137400006,42.1804334610001,"Garrigàs",451,17075
"382",1531,"Veïnat de Cases Noves","L0887","Ordis - Figueres - Vilafant (CAP)","Estarriol Bus, SL",2.95674696300006,42.16224264,"Garrigàs",451,17075
"383",1539,"Garrigoles","L0796","Verges - Girona","Autocars Martí Pi, SA (AMPSA)",3.03055215700005,42.107343373,"Garrigoles",167,17076
"384",1541,"Les Olives","L0796","Verges - Girona","Autocars Martí Pi, SA (AMPSA)",3.02088720300003,42.104328362,"Garrigoles",167,17076
"385",1543,"Ger","L0576","Llívia-Puigcerdà-la Seu d'Urgell-Lleida","SA Alsina Graells de Auto Transportes",1.84558612500007,42.4101519440001,"Ger",449,17078
"386",1547,"Hospital Josep Trueta","L0335","Girona - Sarrià de Ter - Girona","Transportes Eléctricos Interurbanos, SA -TEISA-",2.81930783700005,41.997856287,"Girona",103369,17079
"387",1548,"Hospital Josep Trueta","L1643","e1 Girona - Olot exprés","Transportes Eléctricos Interurbanos, SA -TEISA-",2.81930783700005,41.997856287,"Girona",103369,17079
"388",1550,"Pont Major","L0335","Girona - Sarrià de Ter - Girona","Transportes Eléctricos Interurbanos, SA -TEISA-",2.82565487400007,42.012609997,"Girona",103369,17079
"389",1553,"Vila-roja","L0333","Girona - Sant Feliu de Guíxols - s'Agaró","Transportes Eléctricos Interurbanos, SA -TEISA-",2.84136883200006,41.9730484500001,"Girona",103369,17079
"390",1560,"Vila-roja","L1665","L6 Sarrià de Ter - Girona - Vila-roja","Transportes Eléctricos Interurbanos, SA -TEISA-",2.84136883200006,41.9730484500001,"Girona",103369,17079
"391",1566,"Fàbrica Nestlé","L0322","Girona - Sant Esteve de Llémena","Hispano Hilarienca, SA",2.79258911600004,41.9898852520001,"Girona",103369,17079
"392",1570,"Gombrèn","L0051","Bagà - Ripoll","Transports Mir, SA",2.09010729000005,42.2464444350001,"Gombrèn",192,17080
"393",1574,"Gombrèn","L0604","Ripoll - Llívia","Transports Mir, SA",2.09010729000005,42.2464444350001,"Gombrèn",192,17080
"394",1576,"Hostalric","L0659","Sant Hilari Sacalm - Arbúcies - Girona","Hispano Hilarienca, SA",2.62603722700004,41.745152569,"Hostalric",4291,17083
"395",1580,"Alca","L0576","Llívia-Puigcerdà-la Seu d'Urgell-Lleida","SA Alsina Graells de Auto Transportes",1.83999379200003,42.397730439,"Isòvol",281,17084
"396",1584,"Isòvol","L0576","Llívia-Puigcerdà-la Seu d'Urgell-Lleida","SA Alsina Graells de Auto Transportes",1.81900021200005,42.378162435,"Isòvol",281,17084
"397",1588,"Jafre","L0440","L'Estartit - Girona","Autocars Martí Pi, SA (AMPSA)",3.01326053800005,42.070104681,"Jafre",387,17085
"398",1590,"la Jonquera","L0305","Figueres - els Límits","David i Manel SL",2.87134199700006,42.4187925370001,"La Jonquera",3320,17086
"399",1601,"els Límits","L0305","Figueres - els Límits","David i Manel SL",2.86417983700005,42.4595993470001,NA,NA,NA
"400",1605,"Juià (cruïlla)","L1461","Girona-Llagostera-Palamós-la Bisbal-Girona(circuït","SARFA SL",2.90794278600004,42.0164162200001,"Juià",319,17087
"401",1610,"Juià (cruïlla)","L1556","Girona-la Bisbal-Palamós-Llagostera-Girona(circuït","SARFA SL",2.90794278600004,42.0164162200001,"Juià",319,17087
"402",1615,"Lladó","L0442","Lladó - Figueres","Transportes Eléctricos Interurbanos, SA -TEISA-",2.81619595900003,42.2478619340001,"Lladó",844,17088
"403",1617,"Llagostera","L0331","Girona - Palamós (nocturn)","SARFA SL",2.89580852500006,41.8286593500001,"Llagostera",8647,17089
"404",1625,"Llagostera","L0333","Girona - Sant Feliu de Guíxols - s'Agaró","Transportes Eléctricos Interurbanos, SA -TEISA-",2.89580852500006,41.8286593500001,"Llagostera",8647,17089
"405",1632,"Llagostera","L0134","Barcelona-Torroella de Montgrí","SARFA SL",2.89580852500006,41.8286593500001,"Llagostera",8647,17089
"406",1654,"Llagostera","L1461","Girona-Llagostera-Palamós-la Bisbal-Girona(circuït","SARFA SL",2.89580852500006,41.8286593500001,"Llagostera",8647,17089
"407",1659,"Llagostera","L1556","Girona-la Bisbal-Palamós-Llagostera-Girona(circuït","SARFA SL",2.89580852500006,41.8286593500001,"Llagostera",8647,17089
"408",1662,"Llagostera","L1695","Girona-aeroport-St.Feliu-Platja d'Aro","Transportes Eléctricos Interurbanos, SA -TEISA-",2.89580852500006,41.8286593500001,"Llagostera",8647,17089
"409",1663,"Llambilles","L0331","Girona - Palamós (nocturn)","SARFA SL",2.85056703800007,41.9208937070001,"Llambilles",713,17090
"410",1671,"Llambilles","L0333","Girona - Sant Feliu de Guíxols - s'Agaró","Transportes Eléctricos Interurbanos, SA -TEISA-",2.85056703800007,41.9208937070001,"Llambilles",713,17090
"411",1678,"Llambilles","L1461","Girona-Llagostera-Palamós-la Bisbal-Girona(circuït","SARFA SL",2.85056703800007,41.9208937070001,"Llambilles",713,17090
"412",1683,"Llambilles","L1556","Girona-la Bisbal-Palamós-Llagostera-Girona(circuït","SARFA SL",2.85056703800007,41.9208937070001,"Llambilles",713,17090
"413",1686,"Llanars","L0691","Setcases - Campdevànol","Transportes Eléctricos Interurbanos, SA -TEISA-",2.34876544400004,42.322055332,"Llanars",535,17091
"414",1695,"Llanars","L0210","Camprodon - Olot","Transportes Eléctricos Interurbanos, SA -TEISA-",2.34876544400004,42.322055332,"Llanars",535,17091
"415",1697,"Llançà","L1120","Barcelona Nord (estació d'autobusos) - Cadaqués","SARFA SL",3.15486800900004,42.3662098450001,"Llançà",4775,17092
"416",1701,"Llançà (estació)","L1690","Circumval·lació Cap de Creus","SARFA SL",3.14702722500004,42.3629869820001,"Llançà",4775,17092
"417",1703,"els Hostalets de Llers","L0305","Figueres - els Límits","David i Manel SL",2.94387286900007,42.292054009,"Llers",1237,17093
"418",1714,"Llívia","L0462","Llívia - Puigcerdà - Barcelona","SA Alsina Graells de Auto Transportes",1.97968781600002,42.4629375100001,"Llívia",1431,17094
"419",1716,"Llívia","L0604","Ripoll - Llívia","Transports Mir, SA",1.97968781600002,42.4629375100001,"Llívia",1431,17094
"420",1718,"Llívia","L0577","Puigcerdà - Ripoll - Girona","Transportes Eléctricos Interurbanos, SA -TEISA-",1.97968781600002,42.4629375100001,"Llívia",1431,17094
"421",1720,"Llívia","L0576","Llívia-Puigcerdà-la Seu d'Urgell-Lleida","SA Alsina Graells de Auto Transportes",1.97968781600002,42.4629375100001,"Llívia",1431,17094
"422",1728,"Lloret de Mar","L0537","Olot - Lloret de Mar","Transportes Eléctricos Interurbanos, SA -TEISA-",2.84215884400004,41.7012296930001,"Lloret de Mar",39089,17095
"423",1730,"Lloret de Mar","L0168","Blanes - Lloret de Mar","Transportes Pujol y Pujol, SL",2.84215884400004,41.7012296930001,"Lloret de Mar",39089,17095
"424",1732,"Lloret de Mar","L0167","Blanes - Girona","Barcelona Bus, SL",2.84215884400004,41.7012296930001,"Lloret de Mar",39089,17095
"425",1734,"Lloret de Mar","L0170","Lloret de Mar - Tossa de Mar","Transportes Pujol y Pujol, SL",2.84215884400004,41.7012296930001,"Lloret de Mar",39089,17095
"426",1736,"Lloret de Mar","L0134","Barcelona-Torroella de Montgrí","SARFA SL",2.84215884400004,41.7012296930001,"Lloret de Mar",39089,17095
"427",1747,"Lloret de Mar","L0885","Lloret de Mar - Girona","Autocars R. Mas, SL",2.84215884400004,41.7012296930001,"Lloret de Mar",39089,17095
"428",1749,"Lloret de Mar","L1138","Lloret de Mar - Tossa de Mar - Palafrugell","SARFA SL",2.84215884400004,41.7012296930001,"Lloret de Mar",39089,17095
"429",1751,"Lloret de Mar","L1160","Lloret de Mar - Cadaqués","SARFA SL",2.84215884400004,41.7012296930001,"Lloret de Mar",39089,17095
"430",1753,"Lloret de Mar","L1461","Girona-Llagostera-Palamós-la Bisbal-Girona(circuït","SARFA SL",2.84215884400004,41.7012296930001,"Lloret de Mar",39089,17095
"431",1758,"Lloret de Mar","L1464","Blanes - Lloret de Mar - Tossa de Mar","Transportes Pujol y Pujol, SL",2.84215884400004,41.7012296930001,"Lloret de Mar",39089,17095
"432",1764,"Lloret de Mar","L1494","Aeroport de Girona - Tossa de Mar","Barcelona Bus, SL",2.84215884400004,41.7012296930001,"Lloret de Mar",39089,17095
"433",1772,"Lloret de Mar","L1556","Girona-la Bisbal-Palamós-Llagostera-Girona(circuït","SARFA SL",2.84215884400004,41.7012296930001,"Lloret de Mar",39089,17095
"434",1775,"els Hostalets de les Ll.","L0156","Berga - Ripoll","SA Alsina Graells de Auto Transportes",2.06757666500005,42.1531390110001,"Les Llosses",212,17096
"435",1777,"Santa Maria de les Llosses","L0156","Berga - Ripoll","SA Alsina Graells de Auto Transportes",2.11333616400003,42.1525831500001,"Les Llosses",212,17096
"436",1779,"Santa Maria de Matamala","L0156","Berga - Ripoll","SA Alsina Graells de Auto Transportes",2.08928680100007,42.159311605,"Les Llosses",212,17096
"437",1781,"Maià de Montcal","L0803","Olot - Figueres","Transportes Eléctricos Interurbanos, SA -TEISA-",2.75057482800003,42.2061469020001,"Maià de Montcal",463,17098
"438",1783,"Masarac","L0314","Garriguella - Sant Climent - Figueres","Ampurdan Bus, SL",2.95343256300004,42.3401062030001,"Masarac",288,17100
"439",1789,"Vilarnadal","L0314","Garriguella - Sant Climent - Figueres","Ampurdan Bus, SL",2.94711071900002,42.3366721250001,"Masarac",288,17100
"440",1795,"Maçanet de Cabrenys","L0466","Maçanet de Cabrenys - Figueres","David i Manel SL",2.75387395400003,42.3857735510001,"Maçanet de Cabrenys",698,17102
"441",1797,"Maçanet de la Selva","L0167","Blanes - Girona","Barcelona Bus, SL",2.70934621500004,41.769343215,"Maçanet de la Selva",7066,17103
"442",1799,"Mieres","L0062","Banyoles - Olot (per Mieres)","Transportes Eléctricos Interurbanos, SA -TEISA-",2.64732018200004,42.1313030540001,"Mieres",345,17105
"443",1803,"Mollet de Peralada","L0314","Garriguella - Sant Climent - Figueres","Ampurdan Bus, SL",3.00100790300007,42.359983148,"Mollet de Peralada",198,17106
"444",1809,"Montagut (encreuament)","L0541","Olot - UAB per Banyoles","Transportes Eléctricos Interurbanos, SA -TEISA-",2.58101492600002,42.221098725,"Sant Jaume de Llierca",871,17165
"445",1811,"Montagut (encreuament)","L0803","Olot - Figueres","Transportes Eléctricos Interurbanos, SA -TEISA-",2.58101492600002,42.221098725,"Sant Jaume de Llierca",871,17165
"446",1813,"Montagut (encreuament)","L0326","Girona - Banyoles - Olot","Transportes Eléctricos Interurbanos, SA -TEISA-",2.58101492600002,42.221098725,"Sant Jaume de Llierca",871,17165
"447",1815,"Montagut (encreuament)","L0534","Olot - Barcelona","Transportes Eléctricos Interurbanos, SA -TEISA-",2.58101492600002,42.221098725,"Sant Jaume de Llierca",871,17165
"448",1817,"Mont-ras","L0331","Girona - Palamós (nocturn)","SARFA SL",3.15009124500006,41.9084634660001,"Mont-ras",1680,17110
"449",1821,"Mont-ras","L0657","Sant Feliu de Guixols a Figueres","SARFA SL",3.15009124500006,41.9084634660001,"Mont-ras",1680,17110
"450",1823,"Mont-ras","L0134","Barcelona-Torroella de Montgrí","SARFA SL",3.15009124500006,41.9084634660001,"Mont-ras",1680,17110
"451",1843,"Mont-ras","L0758","Torroella de Montgrí - Palafrugell","SARFA SL",3.15009124500006,41.9084634660001,"Mont-ras",1680,17110
"452",1845,"Navata","L0442","Lladó - Figueres","Transportes Eléctricos Interurbanos, SA -TEISA-",2.89947396300005,42.2397784440001,"Navata",1427,17111
"453",1847,"Navata","L0301","Figueres - Banyoles (per Esponellà)","Transportes Eléctricos Interurbanos, SA -TEISA-",2.89947396300005,42.2397784440001,"Navata",1427,17111
"454",1849,"Navata","L0803","Olot - Figueres","Transportes Eléctricos Interurbanos, SA -TEISA-",2.89947396300005,42.2397784440001,"Navata",1427,17111
"455",1851,"Can Vilà","L0301","Figueres - Banyoles (per Esponellà)","Transportes Eléctricos Interurbanos, SA -TEISA-",2.82076989800004,42.2207512200001,"Cabanelles",267,17031
"456",1853,"Can Vilà","L0803","Olot - Figueres","Transportes Eléctricos Interurbanos, SA -TEISA-",2.82076989800004,42.2207512200001,"Cabanelles",267,17031
"457",1855,"Olot","L0541","Olot - UAB per Banyoles","Transportes Eléctricos Interurbanos, SA -TEISA-",2.49126323700006,42.1807207150001,"Olot",35926,17114
"458",1857,"Olot","L0540","Olot - UAB","Transportes Eléctricos Interurbanos, SA -TEISA-",2.49126323700006,42.1807207150001,"Olot",35926,17114
"459",1859,"Olot","L0537","Olot - Lloret de Mar","Transportes Eléctricos Interurbanos, SA -TEISA-",2.49126323700006,42.1807207150001,"Olot",35926,17114
"460",1861,"Olot","L0682","Santa Pau -Olot","Transportes Eléctricos Interurbanos, SA -TEISA-",2.49126323700006,42.1807207150001,"Olot",35926,17114
"461",1865,"Olot","L0544","Olot - Montagut - Tortellà - Poliger","Transportes Eléctricos Interurbanos, SA -TEISA-",2.49126323700006,42.1807207150001,"Olot",35926,17114
"462",1869,"Olot","L0535","Olot - Batet","Transportes Eléctricos Interurbanos, SA -TEISA-",2.49126323700006,42.1807207150001,"Olot",35926,17114
"463",1871,"Olot","L0539","Olot - Riudaura","Transportes Eléctricos Interurbanos, SA -TEISA-",2.49126323700006,42.1807207150001,"Olot",35926,17114
"464",1873,"Olot","L0536","Olot - Girona","Cia. del Ferrocarril de Olot a Gerona, SA",2.49126323700006,42.1807207150001,"Olot",35926,17114
"465",1875,"Olot","L0577","Puigcerdà - Ripoll - Girona","Transportes Eléctricos Interurbanos, SA -TEISA-",2.49126323700006,42.1807207150001,"Olot",35926,17114
"466",1877,"Olot","L0210","Camprodon - Olot","Transportes Eléctricos Interurbanos, SA -TEISA-",2.49126323700006,42.1807207150001,"Olot",35926,17114
"467",1881,"Olot","L0062","Banyoles - Olot (per Mieres)","Transportes Eléctricos Interurbanos, SA -TEISA-",2.49126323700006,42.1807207150001,"Olot",35926,17114
"468",1883,"Olot","L0545","Olot - Vic (per la Salut)","Transportes Eléctricos Interurbanos, SA -TEISA-",2.49126323700006,42.1807207150001,"Olot",35926,17114
"469",1885,"Olot","L0803","Olot - Figueres","Transportes Eléctricos Interurbanos, SA -TEISA-",2.49126323700006,42.1807207150001,"Olot",35926,17114
"470",1887,"Olot","L0330","Olot - Ripoll per Sant Joan de les Abadesses","Transportes Eléctricos Interurbanos, SA -TEISA-",2.49126323700006,42.1807207150001,"Olot",35926,17114
"471",1891,"Olot","L0326","Girona - Banyoles - Olot","Transportes Eléctricos Interurbanos, SA -TEISA-",2.49126323700006,42.1807207150001,"Olot",35926,17114
"472",1893,"Olot","L0534","Olot - Barcelona","Transportes Eléctricos Interurbanos, SA -TEISA-",2.49126323700006,42.1807207150001,"Olot",35926,17114
"473",1895,"Olot","L0542","Olot - Barcelona per Amer","Transportes Eléctricos Interurbanos, SA -TEISA-",2.49126323700006,42.1807207150001,"Olot",35926,17114
"474",1897,"Olot","L0547","Olot - Vic - Barcelona (per Bracons)","Transportes Eléctricos Interurbanos, SA -TEISA-",2.49126323700006,42.1807207150001,"Olot",35926,17114
"475",1902,"Olot","L0163","Besalú-Castellfollit-Olot-Sant Esteve-les Planes","Transportes Eléctricos Interurbanos, SA -TEISA-",2.49126323700006,42.1807207150001,"Olot",35926,17114
"476",1912,"Olot","L1643","e1 Girona - Olot exprés","Transportes Eléctricos Interurbanos, SA -TEISA-",2.49126323700006,42.1807207150001,"Olot",35926,17114
"477",1914,"Olot","L1666","Sant Privat d'en Bas - Olot","Transportes Eléctricos Interurbanos, SA -TEISA-",2.49126323700006,42.1807207150001,"Olot",35926,17114
"478",1916,"Olot","L1696","Olot - Ripoll per Vallfogona del Ripollès","Transportes Eléctricos Interurbanos, SA -TEISA-",2.49126323700006,42.1807207150001,"Olot",35926,17114
"479",1918,"Batet de la Serra","L0535","Olot - Batet","Transportes Eléctricos Interurbanos, SA -TEISA-",2.48690017800004,42.178197519,"Olot",35926,17114
"480",1920,"Ordis","L0887","Ordis - Figueres - Vilafant (CAP)","Estarriol Bus, SL",2.90399589100002,42.2150960270001,"Ordis",361,17115
"481",1924,"les Mines d'Osor","L0661","Girona a Osor per Anglès","Hispano Hilarienca, SA",2.59237423000008,41.95007975,"Osor",428,17116
"482",1928,"Osor","L0661","Girona a Osor per Anglès","Hispano Hilarienca, SA",2.55718698300007,41.9455631600001,"Osor",428,17116
"483",1932,"Calella de Palafrugell","L1169","Palafrugell - Calella - Llafranc - Palafrugell","SARFA SL",3.18418376600005,41.8896076020001,"Palafrugell",23244,17117
"484",1935,"Llafranc","L1148","Palafrugell - Tamariu","SARFA SL",3.19154818300007,41.8934684920001,"Palafrugell",23244,17117
"485",1939,"Llafranc","L1169","Palafrugell - Calella - Llafranc - Palafrugell","SARFA SL",3.19154818300007,41.8934684920001,"Palafrugell",23244,17117
"486",1940,"Llofriu","L1461","Girona-Llagostera-Palamós-la Bisbal-Girona(circuït","SARFA SL",3.13874676200004,41.9314630640001,"Palafrugell",23244,17117
"487",1946,"Llofriu","L1556","Girona-la Bisbal-Palamós-Llagostera-Girona(circuït","SARFA SL",3.13874676200004,41.9314630640001,"Palafrugell",23244,17117
"488",1953,"Llofriu","L1570","Palafrugell - la Bisbal d'Empordà - Figueres","SARFA SL",3.13874676200004,41.9314630640001,"Palafrugell",23244,17117
"489",1955,"Palafrugell","L0331","Girona - Palamós (nocturn)","SARFA SL",3.15966459900005,41.91803379,"Palafrugell",23244,17117
"490",1959,"Palafrugell","L0657","Sant Feliu de Guixols a Figueres","SARFA SL",3.15966459900005,41.91803379,"Palafrugell",23244,17117
"491",1961,"Palafrugell","L0134","Barcelona-Torroella de Montgrí","SARFA SL",3.15966459900005,41.91803379,"Palafrugell",23244,17117
"492",1981,"Palafrugell","L0758","Torroella de Montgrí - Palafrugell","SARFA SL",3.15966459900005,41.91803379,"Palafrugell",23244,17117
"493",1983,"Tamariu","L1148","Palafrugell - Tamariu","SARFA SL",3.20617734100006,41.918094798,"Palafrugell",23244,17117
"494",1987,"Tamariu","L1169","Palafrugell - Calella - Llafranc - Palafrugell","SARFA SL",3.20617734100006,41.918094798,"Palafrugell",23244,17117
"495",1988,"Palamós","L0331","Girona - Palamós (nocturn)","SARFA SL",3.12660624300003,41.8488843860001,"Palamós",18135,17118
"496",1996,"Palamós","L0657","Sant Feliu de Guixols a Figueres","SARFA SL",3.12660624300003,41.8488843860001,"Palamós",18135,17118
"497",1998,"Palamós","L0134","Barcelona-Torroella de Montgrí","SARFA SL",3.12660624300003,41.8488843860001,"Palamós",18135,17118
"498",2018,"Palamós","L0758","Torroella de Montgrí - Palafrugell","SARFA SL",3.12660624300003,41.8488843860001,"Palamós",18135,17118
"499",2020,"Palamós (Hospital)","L0331","Girona - Palamós (nocturn)","SARFA SL",3.12179082300003,41.8505108350001,"Palamós",18135,17118
"500",2024,"Palamós (Hospital)","L0657","Sant Feliu de Guixols a Figueres","SARFA SL",3.12179082300003,41.8505108350001,"Palamós",18135,17118
"501",2026,"Palamós (Hospital)","L0134","Barcelona-Torroella de Montgrí","SARFA SL",3.12179082300003,41.8505108350001,"Palamós",18135,17118
"502",2046,"Palamós (Hospital)","L0758","Torroella de Montgrí - Palafrugell","SARFA SL",3.12179082300003,41.8505108350001,"Palamós",18135,17118
"503",2048,"Palamós (Hospital)","L1727","(e3) Palafrugell - Palamós - Girona","SARFA SL",3.12179082300003,41.8505108350001,"Palamós",18135,17118
"504",2050,"Palau de Santa Eulàlia","L0887","Ordis - Figueres - Vilafant (CAP)","Estarriol Bus, SL",2.97016626100003,42.1744325770001,"Palau de Santa Eulàlia",90,17119
"505",2054,"Palau-saverdera","L1690","Circumval·lació Cap de Creus","SARFA SL",3.14436039200007,42.306720023,"Palau-saverdera",1456,17120
"506",2056,"Sant Feliu de Boada","L1122","Palafrugell - Girona E","SARFA SL",3.12466840200005,41.9736487690001,"Palau-sator",310,17121
"507",2057,"Palmerola","L0156","Berga - Ripoll","SA Alsina Graells de Auto Transportes",2.05572750600004,42.1539337180001,"Les Llosses",212,17096
"508",2059,"la Banyeta","L0541","Olot - UAB per Banyoles","Transportes Eléctricos Interurbanos, SA -TEISA-",2.81619505800006,42.072498109,"Palol de Revardit",448,17123
"509",2061,"la Banyeta","L0326","Girona - Banyoles - Olot","Transportes Eléctricos Interurbanos, SA -TEISA-",2.81619505800006,42.072498109,"Palol de Revardit",448,17123
"510",2065,"la Banyeta","L0534","Olot - Barcelona","Transportes Eléctricos Interurbanos, SA -TEISA-",2.81619505800006,42.072498109,"Palol de Revardit",448,17123
"511",2067,"la Banyeta","L0980","BUS PLA DE L'ESTANY","Transportes Eléctricos Interurbanos, SA -TEISA-",2.81619505800006,42.072498109,"Palol de Revardit",448,17123
"512",2070,"la Banyeta","L1424","Banyoles - Riudellots de la Creu","Transportes Eléctricos Interurbanos, SA -TEISA-",2.81619505800006,42.072498109,"Palol de Revardit",448,17123
"513",2073,"Riudellots de la Creu","L0541","Olot - UAB per Banyoles","Transportes Eléctricos Interurbanos, SA -TEISA-",2.81396711700006,42.057192372,"Palol de Revardit",448,17123
"514",2075,"Riudellots de la Creu","L0326","Girona - Banyoles - Olot","Transportes Eléctricos Interurbanos, SA -TEISA-",2.81396711700006,42.057192372,"Palol de Revardit",448,17123
"515",2079,"Riudellots de la Creu","L0534","Olot - Barcelona","Transportes Eléctricos Interurbanos, SA -TEISA-",2.81396711700006,42.057192372,"Palol de Revardit",448,17123
"516",2081,"Riudellots de la Creu","L0980","BUS PLA DE L'ESTANY","Transportes Eléctricos Interurbanos, SA -TEISA-",2.81396711700006,42.057192372,"Palol de Revardit",448,17123
"517",2082,"Riudellots de la Creu","L1424","Banyoles - Riudellots de la Creu","Transportes Eléctricos Interurbanos, SA -TEISA-",2.81396711700006,42.057192372,"Palol de Revardit",448,17123
"518",2084,"Pals","L0657","Sant Feliu de Guixols a Figueres","SARFA SL",3.14871553900002,41.9702696420001,"Pals",2395,17124
"519",2086,"Pals","L0134","Barcelona-Torroella de Montgrí","SARFA SL",3.14871553900002,41.9702696420001,"Pals",2395,17124
"520",2097,"Pals","L0758","Torroella de Montgrí - Palafrugell","SARFA SL",3.14871553900002,41.9702696420001,"Pals",2395,17124
"521",2099,"Pardines","L1286","Vall de Ribes-Ribes de Freser-Campdevànol-Ripoll","Transports Mir, SA",2.21282587800005,42.3106925870001,"Pardines",169,17125
"522",2109,"Parlavà","L0439","L'Estartit - Flaçà","Autocars Martí Pi, SA (AMPSA)",3.03105558700003,42.023582188,"Parlavà",391,17126
"523",2110,"Parlavà","L0760","Torroella de Montgrí - la Bisbal d'Empordà","SARFA SL",3.03105558700003,42.023582188,"Parlavà",391,17126
"524",2112,"Parlavà","L1570","Palafrugell - la Bisbal d'Empordà - Figueres","SARFA SL",3.03105558700003,42.023582188,"Parlavà",391,17126
"525",2116,"Pau","L1690","Circumval·lació Cap de Creus","SARFA SL",3.11360523100007,42.3148061370001,"Pau",557,17128
"526",2118,"Cruïlla Pedret i Marzà","L0313","Garriguella - Figueres","Ampurdan Bus, SL",3.06742837300004,42.3108168260001,"Pedret i Marzà",191,17129
"527",2122,"Peralada","L0313","Garriguella - Figueres","Ampurdan Bus, SL",3.00996137200002,42.3069905780001,"Peralada",1898,17132
"528",2126,"Peralada","L0314","Garriguella - Sant Climent - Figueres","Ampurdan Bus, SL",3.00996137200002,42.3069905780001,"Peralada",1898,17132
"529",2132,"Peralada","L1198","Figueres - Portbou","SARFA SL",3.00996137200002,42.3069905780001,"Peralada",1898,17132
"530",2140,"Vilanova de la Muga","L0313","Garriguella - Figueres","Ampurdan Bus, SL",3.04248532900004,42.281207384,"Peralada",1898,17132
"531",2144,"les Planes d'Hostoles","L0540","Olot - UAB","Transportes Eléctricos Interurbanos, SA -TEISA-",2.53518588100007,42.061094321,"Les Planes d'Hostoles",1712,17133
"532",2146,"les Planes d'Hostoles","L0537","Olot - Lloret de Mar","Transportes Eléctricos Interurbanos, SA -TEISA-",2.53518588100007,42.061094321,"Les Planes d'Hostoles",1712,17133
"533",2148,"les Planes d'Hostoles","L0536","Olot - Girona","Cia. del Ferrocarril de Olot a Gerona, SA",2.53518588100007,42.061094321,"Les Planes d'Hostoles",1712,17133
"534",2150,"les Planes d'Hostoles","L0542","Olot - Barcelona per Amer","Transportes Eléctricos Interurbanos, SA -TEISA-",2.53518588100007,42.061094321,"Les Planes d'Hostoles",1712,17133
"535",2152,"les Planes d'Hostoles","L0163","Besalú-Castellfollit-Olot-Sant Esteve-les Planes","Transportes Eléctricos Interurbanos, SA -TEISA-",2.53518588100007,42.061094321,"Les Planes d'Hostoles",1712,17133
"536",2157,"la Salut Girona","L0545","Olot - Vic (per la Salut)","Transportes Eléctricos Interurbanos, SA -TEISA-",2.51008595900004,42.0496686930001,"Les Planes d'Hostoles",1712,17133
"537",2159,"Planoles","L0577","Puigcerdà - Ripoll - Girona","Transportes Eléctricos Interurbanos, SA -TEISA-",2.10346491600006,42.3140414900001,"Planoles",304,17134
"538",2163,"Planoles","L1286","Vall de Ribes-Ribes de Freser-Campdevànol-Ripoll","Transports Mir, SA",2.10346491600006,42.3140414900001,"Planoles",304,17134
"539",2172,"Planès","L0577","Puigcerdà - Ripoll - Girona","Transportes Eléctricos Interurbanos, SA -TEISA-",2.09746294600006,42.3205147940001,"Toses",168,17201
"540",2176,"Pont de Molins","L0305","Figueres - els Límits","David i Manel SL",2.92891579300004,42.313939761,"Pont de Molins",516,17135
"541",2185,"Pont de Molins","L0466","Maçanet de Cabrenys - Figueres","David i Manel SL",2.92891579300004,42.313939761,"Pont de Molins",516,17135
"542",2187,"Pontós","L0887","Ordis - Figueres - Vilafant (CAP)","Estarriol Bus, SL",2.91632268300003,42.183601459,"Pontós",260,17136
"543",2191,"Mata","L0541","Olot - UAB per Banyoles","Transportes Eléctricos Interurbanos, SA -TEISA-",2.78080121100004,42.1072911950001,"Porqueres",4677,17137
"544",2193,"Mata","L0326","Girona - Banyoles - Olot","Transportes Eléctricos Interurbanos, SA -TEISA-",2.78080121100004,42.1072911950001,"Porqueres",4677,17137
"545",2197,"Mata","L0534","Olot - Barcelona","Transportes Eléctricos Interurbanos, SA -TEISA-",2.78080121100004,42.1072911950001,"Porqueres",4677,17137
"546",2199,"les Preses","L0540","Olot - UAB","Transportes Eléctricos Interurbanos, SA -TEISA-",2.45913569000004,42.1454669130001,"Les Preses",1855,17139
"547",2201,"les Preses","L0537","Olot - Lloret de Mar","Transportes Eléctricos Interurbanos, SA -TEISA-",2.45913569000004,42.1454669130001,"Les Preses",1855,17139
"548",2203,"les Preses","L0536","Olot - Girona","Cia. del Ferrocarril de Olot a Gerona, SA",2.45913569000004,42.1454669130001,"Les Preses",1855,17139
"549",2205,"les Preses","L0545","Olot - Vic (per la Salut)","Transportes Eléctricos Interurbanos, SA -TEISA-",2.45913569000004,42.1454669130001,"Les Preses",1855,17139
"550",2207,"les Preses","L0542","Olot - Barcelona per Amer","Transportes Eléctricos Interurbanos, SA -TEISA-",2.45913569000004,42.1454669130001,"Les Preses",1855,17139
"551",2209,"les Preses","L0547","Olot - Vic - Barcelona (per Bracons)","Transportes Eléctricos Interurbanos, SA -TEISA-",2.45913569000004,42.1454669130001,"Les Preses",1855,17139
"552",2214,"les Preses","L0163","Besalú-Castellfollit-Olot-Sant Esteve-les Planes","Transportes Eléctricos Interurbanos, SA -TEISA-",2.45913569000004,42.1454669130001,"Les Preses",1855,17139
"553",2222,"el Port de la Selva","L1120","Barcelona Nord (estació d'autobusos) - Cadaqués","SARFA SL",3.20299693100003,42.335982281,"El Port de la Selva",958,17140
"554",2226,"el Port de la Selva","L1690","Circumval·lació Cap de Creus","SARFA SL",3.20299693100003,42.335982281,"El Port de la Selva",958,17140
"555",2228,"Puigcerdà","L0604","Ripoll - Llívia","Transports Mir, SA",1.92416955600004,42.430594237,"Puigcerdà",9486,17141
"556",2230,"Puigcerdà","L0577","Puigcerdà - Ripoll - Girona","Transportes Eléctricos Interurbanos, SA -TEISA-",1.92416955600004,42.430594237,"Puigcerdà",9486,17141
"557",2236,"Puigcerdà-Plaça","L0462","Llívia - Puigcerdà - Barcelona","SA Alsina Graells de Auto Transportes",1.92746673000005,42.4340023280001,"Puigcerdà",9486,17141
"558",2238,"Puigcerdà-Plaça","L0576","Llívia-Puigcerdà-la Seu d'Urgell-Lleida","SA Alsina Graells de Auto Transportes",1.92746673000005,42.4340023280001,"Puigcerdà",9486,17141
"559",2248,"Puigcerdà-Estació","L0462","Llívia - Puigcerdà - Barcelona","SA Alsina Graells de Auto Transportes",1.92483069500003,42.4296097980001,"Puigcerdà",9486,17141
"560",2250,"Puigcerdà-Estació","L0576","Llívia-Puigcerdà-la Seu d'Urgell-Lleida","SA Alsina Graells de Auto Transportes",1.92483069500003,42.4296097980001,"Puigcerdà",9486,17141
"561",2259,"la Creueta","L0331","Girona - Palamós (nocturn)","SARFA SL",2.83917514100006,41.967064941,"Girona",103369,17079
"562",2267,"la Creueta","L1461","Girona-Llagostera-Palamós-la Bisbal-Girona(circuït","SARFA SL",2.83917514100006,41.967064941,"Girona",103369,17079
"563",2272,"la Creueta","L1556","Girona-la Bisbal-Palamós-Llagostera-Girona(circuït","SARFA SL",2.83917514100006,41.967064941,"Girona",103369,17079
"564",2275,"Quart","L0331","Girona - Palamós (nocturn)","SARFA SL",2.84269676600007,41.963124877,"Quart",3798,17142
"565",2283,"Quart","L0333","Girona - Sant Feliu de Guíxols - s'Agaró","Transportes Eléctricos Interurbanos, SA -TEISA-",2.84269676600007,41.963124877,"Quart",3798,17142
"566",2290,"Quart","L1461","Girona-Llagostera-Palamós-la Bisbal-Girona(circuït","SARFA SL",2.84269676600007,41.963124877,"Quart",3798,17142
"567",2295,"Quart","L1556","Girona-la Bisbal-Palamós-Llagostera-Girona(circuït","SARFA SL",2.84269676600007,41.963124877,"Quart",3798,17142
"568",2298,"La Creueta (Parc Tecnològic)","L0333","Girona - Sant Feliu de Guíxols - s'Agaró","Transportes Eléctricos Interurbanos, SA -TEISA-",2.83815255100006,41.9371701370001,"Quart",3798,17142
"569",2305,"La Creueta (Parc Tecnològic)","L1461","Girona-Llagostera-Palamós-la Bisbal-Girona(circuït","SARFA SL",2.83815255100006,41.9371701370001,"Quart",3798,17142
"570",2315,"La Creueta (Parc Tecnològic)","L1556","Girona-la Bisbal-Palamós-Llagostera-Girona(circuït","SARFA SL",2.83815255100006,41.9371701370001,"Quart",3798,17142
"571",2318,"Rabós","L0314","Garriguella - Sant Climent - Figueres","Ampurdan Bus, SL",3.02486427300005,42.3770199730001,"Rabós",184,17143
"572",2322,"Regencós","L0657","Sant Feliu de Guixols a Figueres","SARFA SL",3.17123654000005,41.9522608390001,"Regencós",276,17144
"573",2324,"Regencós","L0134","Barcelona-Torroella de Montgrí","SARFA SL",3.17123654000005,41.9522608390001,"Regencós",276,17144
"574",2335,"Regencós","L0758","Torroella de Montgrí - Palafrugell","SARFA SL",3.17123654000005,41.9522608390001,"Regencós",276,17144
"575",2337,"Ribes de Freser","L0577","Puigcerdà - Ripoll - Girona","Transportes Eléctricos Interurbanos, SA -TEISA-",2.16971191900006,42.3053451010001,"Ribes de Freser",1760,17145
"576",2341,"Ribes de Freser","L1286","Vall de Ribes-Ribes de Freser-Campdevànol-Ripoll","Transports Mir, SA",2.16971191900006,42.3053451010001,"Ribes de Freser",1760,17145
"577",2360,"Bruguera","L1286","Vall de Ribes-Ribes de Freser-Campdevànol-Ripoll","Transports Mir, SA",2.16999135400005,42.3043924780001,"Ribes de Freser",1760,17145
"578",2370,"Riells i Viabrea-Breda","L0319","Girona - Sant Celoni (per Sant Hilari Sacalm)","Hispano Hilarienca, SA",2.54704407900005,41.7230442310001,"Riells i Viabrea",4153,17146
"579",2374,"Ripoll (Estació d'autobusos)","L0051","Bagà - Ripoll","Transports Mir, SA",2.19505266100003,42.197028275,"Ripoll",10803,17147
"580",2378,"Ripoll (Estació d'autobusos)","L0691","Setcases - Campdevànol","Transportes Eléctricos Interurbanos, SA -TEISA-",2.19505266100003,42.197028275,"Ripoll",10803,17147
"581",2386,"Ripoll (Estació d'autobusos)","L0156","Berga - Ripoll","SA Alsina Graells de Auto Transportes",2.19505266100003,42.197028275,"Ripoll",10803,17147
"582",2388,"Ripoll (Estació d'autobusos)","L0604","Ripoll - Llívia","Transports Mir, SA",2.19505266100003,42.197028275,"Ripoll",10803,17147
"583",2390,"Ripoll (Estació d'autobusos)","L0577","Puigcerdà - Ripoll - Girona","Transportes Eléctricos Interurbanos, SA -TEISA-",2.19505266100003,42.197028275,"Ripoll",10803,17147
"584",2394,"Ripoll (Estació d'autobusos)","L0208","Camprodon - Barcelona","Transportes Eléctricos Interurbanos, SA -TEISA-",2.19505266100003,42.197028275,"Ripoll",10803,17147
"585",2400,"Ripoll (Estació d'autobusos)","L0330","Olot - Ripoll per Sant Joan de les Abadesses","Transportes Eléctricos Interurbanos, SA -TEISA-",2.19505266100003,42.197028275,"Ripoll",10803,17147
"586",2404,"Ripoll (Estació d'autobusos)","L0403","Vic-Sant Quirze de Besora-Montesquiu-Ripoll","25 Osona Bus, SA",2.19505266100003,42.197028275,"Ripoll",10803,17147
"587",2407,"Ripoll (Estació d'autobusos)","L1286","Vall de Ribes-Ribes de Freser-Campdevànol-Ripoll","Transports Mir, SA",2.19505266100003,42.197028275,"Ripoll",10803,17147
"588",2439,"Ripoll (Estació d'autobusos)","L1309","Ripoll - Campdevànol","Transports Mir, SA",2.19505266100003,42.197028275,"Ripoll",10803,17147
"589",2449,"Ripoll (Estació d'autobusos)","L1696","Olot - Ripoll per Vallfogona del Ripollès","Transportes Eléctricos Interurbanos, SA -TEISA-",2.19505266100003,42.197028275,"Ripoll",10803,17147
"590",2453,"Ripoll (Caselles)","L1309","Ripoll - Campdevànol","Transports Mir, SA",2.19224845900004,42.186110968,"Ripoll",10803,17147
"591",2457,"Ripoll (Pl. Ajuntament)","L0051","Bagà - Ripoll","Transports Mir, SA",2.18872928000008,42.1989921260001,"Ripoll",10803,17147
"592",2459,"Ripoll (Pl. Ajuntament)","L0604","Ripoll - Llívia","Transports Mir, SA",2.18872928000008,42.1989921260001,"Ripoll",10803,17147
"593",2460,"Ripoll (Pl. Ajuntament)","L1286","Vall de Ribes-Ribes de Freser-Campdevànol-Ripoll","Transports Mir, SA",2.18872928000008,42.1989921260001,"Ripoll",10803,17147
"594",2468,"Ripoll (Pl. Ajuntament)","L1309","Ripoll - Campdevànol","Transports Mir, SA",2.18872928000008,42.1989921260001,"Ripoll",10803,17147
"595",2470,"Ripoll (IES)","L1286","Vall de Ribes-Ribes de Freser-Campdevànol-Ripoll","Transports Mir, SA",2.19338045700005,42.1885146050001,"Ripoll",10803,17147
"596",2483,"Ripoll (IES)","L1309","Ripoll - Campdevànol","Transports Mir, SA",2.19338045700005,42.1885146050001,"Ripoll",10803,17147
"597",2487,"Ripoll (Pl. Pompeu Fabra)","L1309","Ripoll - Campdevànol","Transports Mir, SA",2.18752772400006,42.1982361020001,"Ripoll",10803,17147
"598",2491,"Rivamala","L0691","Setcases - Campdevànol","Transportes Eléctricos Interurbanos, SA -TEISA-",2.23436030600004,42.2207676800001,"Ripoll",10803,17147
"599",2499,"Rivamala","L0208","Camprodon - Barcelona","Transportes Eléctricos Interurbanos, SA -TEISA-",2.23436030600004,42.2207676800001,"Ripoll",10803,17147
"600",2502,"Rama","L0691","Setcases - Campdevànol","Transportes Eléctricos Interurbanos, SA -TEISA-",2.20585786100003,42.2104688790001,"Ripoll",10803,17147
"601",2510,"Rama","L0208","Camprodon - Barcelona","Transportes Eléctricos Interurbanos, SA -TEISA-",2.20585786100003,42.2104688790001,"Ripoll",10803,17147
"602",2514,"Ripoll (Monestir)","L0208","Camprodon - Barcelona","Transportes Eléctricos Interurbanos, SA -TEISA-",2.18980897600005,42.200755977,"Ripoll",10803,17147
"603",2518,"Ripoll (Ctra. Barcelona)","L1286","Vall de Ribes-Ribes de Freser-Campdevànol-Ripoll","Transports Mir, SA",2.19227337500007,42.1908124230001,"Ripoll",10803,17147
"604",2537,"Ripoll (Ctra. Barcelona)","L1309","Ripoll - Campdevànol","Transports Mir, SA",2.19227337500007,42.1908124230001,"Ripoll",10803,17147
"605",2541,"Ripoll (Fuensanta)","L1286","Vall de Ribes-Ribes de Freser-Campdevànol-Ripoll","Transports Mir, SA",2.19857748900006,42.194134923,"Ripoll",10803,17147
"606",2560,"Ripoll (Fuensanta)","L1309","Ripoll - Campdevànol","Transports Mir, SA",2.19857748900006,42.194134923,"Ripoll",10803,17147
"607",2564,"Ripoll (Vista Alegre)","L1309","Ripoll - Campdevànol","Transports Mir, SA",2.18369266100007,42.194120029,"Ripoll",10803,17147
"608",2566,"Ripoll (P. Sant Joan)","L1286","Vall de Ribes-Ribes de Freser-Campdevànol-Ripoll","Transports Mir, SA",2.19200925500007,42.197286073,"Ripoll",10803,17147
"609",2579,"Ripoll (P. Sant Joan)","L1309","Ripoll - Campdevànol","Transports Mir, SA",2.19200925500007,42.197286073,"Ripoll",10803,17147
"610",2581,"Ripoll (Pgon. Els Pintors)","L1286","Vall de Ribes-Ribes de Freser-Campdevànol-Ripoll","Transports Mir, SA",2.20202931300003,42.2095326780001,"Ripoll",10803,17147
"611",2594,"Ripoll (Raval Sant Pere)","L1309","Ripoll - Campdevànol","Transports Mir, SA",2.18652579400003,42.200804792,"Ripoll",10803,17147
"612",2596,"Ripoll (Ctra. de Ribes)","L1286","Vall de Ribes-Ribes de Freser-Campdevànol-Ripoll","Transports Mir, SA",2.18477805500004,42.2001349270001,"Ripoll",10803,17147
"613",2602,"Ripoll (Ctra. de Ribes)","L1309","Ripoll - Campdevànol","Transports Mir, SA",2.18477805500004,42.2001349270001,"Ripoll",10803,17147
"614",2608,"Ripoll (Rocafiguera)","L1286","Vall de Ribes-Ribes de Freser-Campdevànol-Ripoll","Transports Mir, SA",2.17735152200004,42.202117322,"Ripoll",10803,17147
"615",2627,"Ripoll (Rocafiguera)","L1309","Ripoll - Campdevànol","Transports Mir, SA",2.17735152200004,42.202117322,"Ripoll",10803,17147
"616",2633,"Ripoll (Col. Noguera)","L1286","Vall de Ribes-Ribes de Freser-Campdevànol-Ripoll","Transports Mir, SA",2.16777856400006,42.212549552,"Ripoll",10803,17147
"617",2652,"Ripoll (Col. Noguera)","L1309","Ripoll - Campdevànol","Transports Mir, SA",2.16777856400006,42.212549552,"Ripoll",10803,17147
"618",2658,"Ripoll (Plaça Gran)","L1309","Ripoll - Campdevànol","Transports Mir, SA",2.18985970900007,42.1967845730001,"Ripoll",10803,17147
"619",2662,"Ripoll (Rda. C'an Franquesa)","L1309","Ripoll - Campdevànol","Transports Mir, SA",2.19534296200004,42.1856013450001,"Ripoll",10803,17147
"620",2666,"Ripoll (ctra. Bna. Maragall)","L1309","Ripoll - Campdevànol","Transports Mir, SA",2.19078401700006,42.1936389030001,"Ripoll",10803,17147
"621",2670,"Riudarenes","L0540","Olot - UAB","Transportes Eléctricos Interurbanos, SA -TEISA-",2.72221838700005,41.822624304,"Riudarenes",2204,17148
"622",2672,"Riudarenes","L0537","Olot - Lloret de Mar","Transportes Eléctricos Interurbanos, SA -TEISA-",2.72221838700005,41.822624304,"Riudarenes",2204,17148
"623",2674,"Riudarenes","L0027","Amer - Santa Coloma de Farners - Sils","Transportes Eléctricos Interurbanos, SA -TEISA-",2.72221838700005,41.822624304,"Riudarenes",2204,17148
"624",2677,"Riudarenes","L0542","Olot - Barcelona per Amer","Transportes Eléctricos Interurbanos, SA -TEISA-",2.72221838700005,41.822624304,"Riudarenes",2204,17148
"625",2679,"Bastons","L1696","Olot - Ripoll per Vallfogona del Ripollès","Transportes Eléctricos Interurbanos, SA -TEISA-",2.43823747100004,42.1958200970001,"Riudaura",481,17149
"626",2681,"la Cantina","L1696","Olot - Ripoll per Vallfogona del Ripollès","Transportes Eléctricos Interurbanos, SA -TEISA-",2.38296434100005,42.2027321410001,"Riudaura",481,17149
"627",2683,"Riudaura","L0539","Olot - Riudaura","Transportes Eléctricos Interurbanos, SA -TEISA-",2.41704617400006,42.196651022,"Riudaura",481,17149
"628",2685,"Riudaura","L1696","Olot - Ripoll per Vallfogona del Ripollès","Transportes Eléctricos Interurbanos, SA -TEISA-",2.41704617400006,42.196651022,"Riudaura",481,17149
